DEP_Code,Name,Street_Add,Town_City,Type,Zip Code,tons,Lat,Long,X_Coord,Y_Coord,Status,Score
R1427,10 Bridge Street Cafe & Rest,10 Bridge St,Shelburne Falls,R,1370,27,42.60366671,72.7409107,98171.7172,928862.8306,M,100
R3688,111 Chophouse,111 Shrewsbury St,Worcester,R,1604,120,42.263585,71.7899003,176081.7954,890386.8639,M,100
R1508,1370 Coffee House,1369 Cambridge St,Cambridge,R,2139,30,42.3736773,71.1004939,232903.891,902651.864,M,100
R2496,1640 Harthouse,51 Linebrook Rd,Ipswich,R,1938,45,42.68418008,70.8517239,253130.4828,937267.8518,M,100
R3689,1761 Old Mill Restaurant,69 State Rd E,Westminster,R,1473,120,42.54974874,71.8857027,168321.4117,922204.3609,M,100
R2017,224 Boston Street Restaurant,224 Boston St,Boston,R,2125,36,42.32215419,71.0611181,236176.361,896944.872,M,100
R2830,28 Degrees,1 Appleton St,Boston,R,2116,46.5,42.3466571,71.0690856,235505.8645,899663.178,M,100
R2497,29 Newbury Street Restaurant,29 Newbury St,Boston,R,2116,45,42.35226425,71.0725576,235216.6616,900284.5535,M,100
W1,2nd Street Baking Co,69 2nd St,Turners Falls,W,1376,,42.6087949,72.5560485,113347.592,929228.1912,M,100
R3455,34 Restaurant & Lounge,33 Stanhope St,Boston,R,2116,90,42.3483641,71.0730409,235179.0121,899851.144,M,100
R463,4 Lucky Stars,179 W Central St Ste 5,Natick,R,1760,18,42.28250104,71.3804818,209857.9124,892454.219,M,100
R2018,400 East,1421 Orleans Rd Ste 21,Harwich,R,2645,36,41.70710987,70.0232191,322905.9195,829602.37,M,100
R1509,5 Corners Kitchen,2 School St,Marblehead,R,1945,30,42.5014929,70.8557952,252950.0862,916972.3688,M,100
R2405,5 Guys,85 OLD FAUNCE CORNER RD,NORTH DARTMOUTH,R,2747,42,41.64915306,70.9875547,242689.0966,822229.4769,M,100
R1510,75 Chestnut,75 Chestnut St Ste 1,Boston,R,2108,30,42.35677043,71.0707007,235367.1359,900785.8472,M,100
G1,88 Supermarket Inc,50 Harold St,Boston,G,2119,105,42.31877289,71.0891849,233864.6857,896557.7729,M,100
R1,99 Restaurant & Pub,13 Commonwealth Ave,Concord,R,1742,15,42.45651441,71.3930041,208800.8208,911781.7239,M,100
R3029,99 Restaurant & Pub,34 Sconticut Neck Rd,Fairhaven,R,2719,60,41.63813025,70.881235,251554.7602,821063.9635,M,100
R3030,99 Restaurant & Pub,786 River St,Haverhill,R,1832,60,42.77137,71.1147431,231530.784,946822.9266,M,100
R3173,99 Restaurant & Pub,672 Boston Rd,Billerica,R,1821,64.5,42.5407486,71.2474048,220749.1878,921163.7069,M,100
R3176,99 Restaurant & Pub,121 VFW Pkwy,Revere,R,2151,66,42.41142398,70.9963223,241458.765,906890.0259,M,100
R3178,99 Restaurant & Pub,464 Lowell St,Andover,R,1810,67.5,42.64290368,71.2095516,223819.9525,932521.2778,M,100
R3179,99 Restaurant & Pub,15 Bridge St,Salem,R,1970,67.5,42.5350993,70.8871364,250347.2357,920686.3264,M,100
R3234,99 Restaurant & Pub,1600 Falmouth Rd,Centerville,R,2632,75,41.65715315,70.3453428,296173.9703,823640.7599,M,100
R3235,99 Restaurant & Pub,275 Summer St,Fitchburg,R,1420,75,42.57265758,71.7795184,177050.854,924715.11,M,100
R3236,99 Restaurant & Pub,8 Ryans Way,Mashpee,R,2649,75,41.62136314,70.4884316,284303.524,819514.5859,T,100
R3237,99 Restaurant & Pub,699 Merrill Rd,Pittsfield,R,1201,75,42.46780904,73.2034522,59918.8726,914429.6369,M,100
R3238,99 Restaurant & Pub,3013 Cranberry Hwy,Wareham,R,2571,75,41.76197907,70.6742504,268666.8393,834964.9593,M,61
R3239,99 Restaurant & Pub,14 Berry Ave,West Yarmouth,R,2673,75,41.6499504,70.2425018,304751.0217,822961.9741,M,100
R3240,99 Restaurant & Pub,1094 MAIN ST,SOUTH WEYMOUTH,R,2190,75,42.1661319,70.9552509,245013.3992,879665.4984,M,100
R3241,99 Restaurant & Pub,900 W Boylston St,Worcester,R,1606,75,42.32533616,71.792856,175861.4897,897246.6805,M,100
R3402,99 Restaurant & Pub,59 Newport Ave,Quincy,R,2171,82.5,42.27277122,71.027806,238952.5613,891474.3938,M,100
R3433,99 Restaurant & Pub,233 Broad St,Bridgewater,R,2324,85.5,41.99601112,70.9730945,243655.6997,860761.0777,M,100
R3434,99 Restaurant & Pub,847 W Central St,Franklin,R,2038,85.5,42.09040161,71.432237,205606.0712,871112.4745,M,100
R3435,99 Restaurant & Pub,17 Colrain Rd,Greenfield,R,1301,85.5,42.58707842,72.6237367,107762.0724,926887.0227,M,100
R3436,99 Restaurant & Pub,428 Lincoln St,Hingham,R,2043,85.5,42.24800912,70.9263015,247344.3257,888775.3557,M,100
R3437,99 Restaurant & Pub,196 EAST MAIN STREET,MILFORD,R,1757,85.5,42.15090955,71.5013196,199890.9305,877830.9741,M,100
R3438,99 Restaurant & Pub,166 Church St,Pembroke,R,2359,85.5,42.1078721,70.7697542,260396.328,873309.2581,M,100
R3439,99 Restaurant & Pub,21 Home Depot Dr,Plymouth,R,2360,85.5,41.9329703,70.6588905,269756.8055,853968.2607,M,100
R3440,99 Restaurant & Pub,1371 Liberty St,Springfield,R,1104,85.5,42.13785856,72.5831148,110462.5929,876949.8654,M,100
R3441,99 Restaurant & Pub,1655 Boston Rd,Springfield,R,1129,85.5,42.14348564,72.4878308,118346.2671,877479.2127,M,100
R3442,99 Restaurant & Pub,158 Dean St,Taunton,R,2780,85.5,41.90594518,71.0690208,235758.5392,850713.0029,M,100
R3443,99 Restaurant & Pub,401 Main St,Tewksbury,R,1876,85.5,42.62058219,71.2594892,219731.5235,930028.9638,M,100
R3444,99 Restaurant & Pub,1053 Riverdale St,West Springfield,R,1089,85.5,42.13277478,72.6258669,106921.168,876431.0131,M,100
R3445,99 Restaurant & Pub,333 Littleton Rd,Westford,R,1886,85.5,42.55465251,71.4484058,204237.2279,922678.7397,M,100
R3446,99 Restaurant & Pub,144 Lowell St,Wilmington,R,1887,85.5,42.54038204,71.1546613,228367.6383,921149.6918,M,100
R3447,99 Restaurant & Pub,11 E Central St,Worcester,R,1605,85.5,42.26661235,71.7952041,175645.3746,890724.6243,M,100
R3448,99 Restaurant & Pub,50 SW Cutoff Ste 1,Worcester,R,1604,85.5,42.2391645,71.7458737,179706.3794,887662.9776,M,100
R3453,99 Restaurant & Pub,20 CUMMINGS ST,SOMERVILLE,R,2145,88.5,42.3944881,71.0835915,234284.7008,904970.1037,M,51
R3456,99 Restaurant & Pub,160 Lexington Rd,Billerica,R,1821,90,42.52849707,71.2570555,219960.3222,919800.4905,M,100
R3457,99 Restaurant & Pub,390 N Main St,East Longmeadow,R,1028,90,42.07791621,72.5245011,115227.7761,870232.5905,M,100
R3458,99 Restaurant & Pub,404 Pleasant St Bldg 7,Fall River,R,2721,90,41.69912136,71.1484493,229263.0374,827711.4098,M,100
R3459,99 Restaurant & Pub,255 Washington St,Hudson,R,1749,90,42.37622183,71.5646675,194674.0861,902859.4651,M,100
R3460,99 Restaurant & Pub,850 Chelmsford St,Lowell,R,1851,90,42.6168426,71.3254466,214321.2327,929600.3887,M,100
R3461,99 Restaurant & Pub,317 Salem St,Lynnfield,R,1940,90,42.5124328,71.0235776,239152.6778,918096.9701,M,100
R3462,99 Restaurant & Pub,196 E Main St B,Milford,R,1757,90,42.15090955,71.5013196,199890.9305,877830.9741,M,100
R3463,99 Restaurant & Pub,267 Chickering Rd,North Andover,R,1845,90,42.686389,71.1219565,230982.2561,937379.9876,M,100
R3464,99 Restaurant & Pub,1510 S Washington St,North Attleboro,R,2760,90,41.933723,71.3517415,212295.7585,853718.6066,M,100
R3465,99 Restaurant & Pub,161 Faunce Corner Mall Rd,North Dartmouth,R,2747,90,41.65190697,70.9876575,242678.6896,822535.2911,M,86
R3466,99 Restaurant & Pub,2 Accord Park Dr,Rockland,R,2370,90,42.16731873,70.8889492,250490.9742,879834.4387,M,100
R3467,99 Restaurant & Pub,181 Broadway,Saugus,R,1906,90,42.49347411,71.0164709,239748.6426,915994.3468,M,100
R3468,99 Restaurant & Pub,821 Fall River Ave,Seekonk,R,2771,90,41.80425433,71.3308267,214058.8404,839341.9488,M,100
R3469,99 Restaurant & Pub,10 Main St,Stoneham,R,2180,90,42.49953265,71.100782,232814.7353,916631.4603,M,100
R3470,99 Restaurant & Pub,110 South St,Waltham,R,2453,90,42.37201583,71.2499781,220592.7499,902420.437,M,100
R3471,99 Restaurant & Pub,194 Cambridge Rd,Woburn,R,1801,90,42.4669757,71.1774351,226527.7467,912988.3986,M,100
R3472,99 Restaurant & Pub,160 Olympia Ave,Woburn,R,1801,90,42.50015536,71.1421627,229413.0733,916685.5361,M,100
R3578,99 Restaurant & Pub,362 Turnpike St,Canton,R,2021,97.5,42.17228634,71.1113462,232112.0163,880278.5077,M,100
R3579,99 Restaurant & Pub,4 Fisher St,Foxboro,R,2035,97.5,42.03890998,71.2382212,221674.6409,865424.2861,M,100
R3580,99 Restaurant & Pub,99 Belmont St,South Easton,R,2375,97.5,42.05311034,71.0756741,235125.2028,867055.6375,M,100
R3581,99 Restaurant & Pub,55 PROVIDENCE HWY,EAST WALPOLE,R,2081,97.5,42.15655717,71.2026828,224571.5683,878501.0929,M,51
R3612,99 Restaurant & Pub,793 Southbridge St,Auburn,R,1501,105,42.18143997,71.868682,169542.5117,881287.8916,M,100
R3613,99 Restaurant & Pub,291 Mishawum Rd,Woburn,R,1801,105,42.50358074,71.1339004,230090.5648,917068.9073,M,100
R3242,99 Restaurant The,60 Commonwealth Ave,Danvers,R,1923,75,42.54974541,70.9432277,245728.7389,922281.6157,M,100
F1,A & A Seafood Inc,7 Conway St,New Bedford,F,2740,,41.62686,70.9170614,248578.3564,819791.2048,M,100
G2,A & P SuperFoodmart,Main St,Dennis,G,2639,39,41.74739,70.17838,309924.3421,833863.8267,M,100
G3,A & P SuperFoodmart,170 Clay Pond Rd,Bourne,G,2532,75,41.71682161,70.5894322,275773.3448,830021.4913,M,100
G4,A & P SuperFoodmart,770 Main St,Barnstable,G,2655,33,41.64751008,70.2949766,300383.9395,822627.8616,M,100
G5,A & P SuperFoodmart,28 Shank Painter Rd,Provincetown,G,2657,150,42.0490116,70.1935045,308153.3563,867341.3374,M,100
G6,A & P SuperFoodmart,George Ryder Rd,Chatham,G,2633,37.5,41.68308477,69.9955878,325252.3747,826974.5595,M,63
G7,A & P Variety Store,60 Aborn St,Peabody,G,1960,262.5,42.52071414,70.9217869,247511.5487,919068.5645,M,100
F2,A Arena & Sons Inc,159 Ash St,Hopkinton,F,1748,,42.21466108,71.4981666,200151.3779,884912.0435,M,100
F3,A D Makepeace CO,158 Tihonet Rd,Wareham,F,2571,,41.78828304,70.713397,265384.6793,837855.5978,M,100
R2044,A J Tomaiolo Food & Spirits,411 W Main St Ste 2,Northborough,R,1532,37.5,42.30542911,71.6668649,186241.8949,895007.5099,M,100
R3243,A K Diamonds,16 Macys Ln,Nantucket,R,2554,75,41.2610602,70.0647165,320286.2115,780008.4783,M,100
R1903,A Lighter Fare,10 Bassett St,Milton,R,2186,31.5,42.25922002,71.0414076,237838.6289,889963.0993,M,100
W2,"A M L International, Inc",7 Conway St,New Bedford,W,2740,,41.62686,70.9170614,248578.3564,819791.2048,M,100
W3,A Martucci & Sons Inc,126 Newmarket Sq,Boston,W,2118,,42.33020601,71.067558,235640.9976,897836.5132,M,66
W4,A P Fish& Produce,1241 Millbury St,Worcester,W,1607,,42.22044023,71.7837907,176569.9217,885592.9302,M,66
G8,A Plus Market Inc,50 Central St,Peabody,G,1960,7.5,42.5299229,70.9272682,247054.2882,920088.4239,M,100
R3031,A R T U Restaurant,6 Prince St,Boston,R,2113,60,42.36416,71.053635,236768.7556,901613.8619,M,100
W5,A Simos & Company Inc,60 Avocado St,Springfield,W,1104,,42.11027603,72.609455,108245.4098,873914.4684,M,66
R464,A Taste of Nantucket,19 Boynton Ln,Nantucket,R,2554,18,41.26733977,70.1013394,317205.8095,780654.8675,M,100
R1338,A Taste of Time Cafe,122 Washington St,Salem,R,1970,24,42.52109448,70.8955885,249663.9219,919125.7352,M,100
W6,"A. Russo & Sons, Inc.",560 Pleasant St,Watertown,W,2472,,42.58094298,72.2179958,141059.1283,925845.9483,T,66
W7,"A.B. Seafood, LLC",18 Newmarket Sq,Boston,W,2118,,42.33016936,71.0653809,235820.4472,897833.3548,M,66
R1511,A 1 Deli,92 Merrimack St,Haverhill,R,1830,30,42.77456501,71.0787123,234477.8929,947191.7981,M,100
R1512,Abba,89 Old Colony Way,Orleans,R,2653,30,41.7843329,70.0009329,324609.7805,838210.3999,M,100
R3572,Abbey Grill,197 Portland St Ste 4,Boston,R,2114,93,42.36414266,71.061518,236119.4211,901608.5682,M,100
IH206,ABBOTT HOUSE NURSING HOME,28 ESSEX STREET,LYNN,IH,1902,18.0675,42.47514375,70.9277587,247054.8172,914003.3866,M,100
R3685,Abe & Louies,793 Boylston St,Boston,R,2116,117,42.34889856,71.0816854,234466.4687,899906.9805,M,100
IH207,ABERJONA NURSING CENTER INC,184 SWANTON STREET,WINCHESTER,IH,1890,40.4055,42.46113177,71.1379119,229780.8721,912352.3087,M,100
R3449,Above and Beyond Catering,42a Plympton St,Boston,R,2118,85.5,42.3390316,71.0682329,235580.4095,898816.532,M,100
F4,ABP Corp (Au Bon Pain),19 Fid Kennedy Ave,Boston,F,2210,,42.34653549,71.0291151,238799.3391,899667.0802,M,100
R2,Abraham's Bagels,11 Liberty St,Newburyport,R,1950,15,42.81104508,70.8691597,251597.2968,951350.0535,M,100
W8,Abramo Fish,16 Fish Pier,Boston,W,2210,,42.3495511,71.0392174,237965.1404,899997.4929,M,66
W9,AC Produce Company,487 Main St,Springfield,W,1105,,42.6718754,71.8107498,174526.8482,935745.4671,T,66
R3244,Acacia At Indian Meadows Country,275 Turnpike Rd,Westborough,R,1581,75,42.28308861,71.6463987,187925.086,892522.9384,M,100
IH208,ACADEMY MANOR,89 MORTON STREET,ANDOVER,IH,1810,57.159,42.655865,71.12952,230377.1271,933986.5065,M,100
R1513,Academy Ocean Grille Rest,2 Academy Pl,Orleans,R,2653,30,41.786711,69.9874292,325727.4716,838494.3061,M,100
R1514,Acapulcos,500 BOSTON PROVIDENCE TPKE,NORWOOD,R,2062,30,42.19429339,71.1837407,226121.479,882698.1609,M,100
R2045,Acapulcos Restaurant,1388 Hancock St,Quincy,R,2169,37.5,42.24995567,71.0024533,241058.7298,888952.1005,M,100
G9,Ack Market Inc,158 Jefferson Rd,Buzzards Bay,G,2532,30,41.73651692,70.6210573,273119.2058,832181.2838,M,100
F5,Acorean Manufacturing,210 Alden St,Fall River,F,2723,,41.68891853,71.134898,230395.8923,826582.9544,M,100
R3,Adamo's Pizza,126 Northampton St Ste F,Easthampton,R,1027,15,42.28066806,72.6701599,103484.9099,892905.7605,M,100
R3245,Adam's Corner General Store,772 Adams St 776,Boston,R,2124,75,42.283405,71.055715,236644.1416,892643.1545,M,100
F6,Adams Farm,775 Bearsden Rd,Athol,F,1331,,42.59358251,72.2023103,142358.2937,927239.2201,M,100
G10,Adams Shore Super Market,494 Sea St,Quincy,G,2169,15,42.2612064,70.9796798,242930.4108,890212.9577,M,100
IH142,"ADCARE HOSPITAL OF WORCESTER,",107 LINCOLN STREET,WORCESTER,IH,1605,71.1531,42.276427,71.7953933,175633.5396,891814.8313,M,100
W49,"Ademar's Natural Products, Inc.",52 Broadway Ste 6,Somerville,W,2145,,42.4083357,71.1366817,229907.0331,906488.2719,T,66
F7,ADM,150 Oakland St,Mansfield,F,2048,,42.04005585,71.2127502,223783.14,865558.3451,M,100
R4,Admiral O'Briens,407 Main St,Sturbridge,R,1566,15,42.1119265,72.0971682,150613.0511,873673.9313,M,100
R2046,Adrian's Restaurant,535 Rte 6,North Truro,R,2652,37.5,42.04843817,70.1062566,315376.2667,867391.9765,M,85
W10,Ae Goulet Inc,102 Jackson St,Salem,W,1970,,41.97199932,71.3080281,215911.5413,857977.1569,T,66
R3246,Aegean Restaurant,640 Arsenal St,Watertown,R,2472,75,42.36237106,71.1530417,228581.1155,901377.0741,M,100
R3473,Aegean Restaurant,257 Cochituate Rd,Framingham,R,1701,90,42.30213734,71.4040494,207911.5977,894632.8673,M,100
F8,Aesops Bagel Bakery L.L.c,15 Garfield Ave,Somerville,F,2145,,42.38926236,71.0864844,234049.3351,904388.489,M,100
R3032,Agave Mexican Bistro,50 State St,Newburyport,R,1950,60,42.8101701,70.8701354,251518.2144,951252.2636,M,100
R2890,Agawam Diner,165 NEWBURYPORT TPKE,ROWLEY,R,1969,52.5,42.705405,70.909075,248413.9276,939591.4645,M,100
G11,Agawam Public Market,768 Main St,Agawam,G,1001,27,42.06726772,72.6157665,107660.9812,869144.6979,M,100
R389,Agostino's Restaurant,23 Washington St,Natick,R,1760,16.5,42.285044,71.3463442,212673.0875,892741.1861,M,100
R5,Agresti's Restaurant,11 Fuller Rd,Chelmsford,R,1824,15,42.61477398,71.3438565,212811.2181,929367.6705,M,100
F9,Agri Mark,100 Milk St,Methuen,F,1844,,42.73744809,71.1552553,228230.3721,943040.4107,M,100
F10,"Agri Mark, Inc.",100 Milk St Ste 5,Methuen,F,1844,,42.73744809,71.1552553,228230.3721,943040.4107,M,100
F11,"Agri Mark, Inc.",958 Riverdale St,West Springfield,F,1089,,42.1300674,72.626232,106887.0139,876130.7229,M,100
F12,Agritech Purchase Inc,252 Elm St,Dartmouth,F,2748,,41.58624519,70.9431958,246429.9559,815265.7586,M,100
R3033,Aigo Bistro,84 Thoreau St,Concord,R,1742,60,42.45677216,71.3573203,211735.9039,911814.6502,M,100
R465,Al Dente Restaurant,109 Salem St Ste 1,Boston,R,2113,18,42.3642664,71.0555006,236615.0189,901624.8777,M,100
R2498,Al Mac's Diner & Restaurant,135 President Ave,Fall River,R,2720,45,41.71636882,71.1537447,228814.4774,829625.2275,M,100
R2499,Alamo The,55 Medway Rd,Milford,R,1757,45,42.14917891,71.4989362,200087.9277,877638.7484,M,100
G12,Alan Jick,1845 Massachusetts Ave,Lexington,G,2420,22.5,42.4482664,71.2289731,222295.8792,910895.444,M,100
R3247,Alberto's Restaurant,360 Main St,Hyannis,R,2601,75,41.65320431,70.2829649,301375.4766,823274.4485,M,100
R3403,Albert's Restaurant,217 Washington St,Stoughton,R,2072,82.5,42.14009669,71.102787,232835.8539,876706.4211,M,100
G13,Albrizios,389 Main St,Worcester,G,1608,18,42.26420328,71.8018106,175099.3873,890458.947,M,100
R2500,Alchemy,71 Main St,Edgartown,R,2539,45,41.39002387,70.5145988,282419.6984,793796.3957,M,100
R2501,Alchemy Cafe & Bistro,3 Duncan St,Gloucester,R,1930,45,42.61219394,70.661108,268830.9036,929407.8231,M,100
IH209,ALDEN COURT NURS & REHAB CTR,389 ALDEN ROAD,FAIRHAVEN,IH,2719,46.647,41.6654208,70.9043399,249608.5547,824081.2821,M,100
F13,Alden Merrell Cheesecake Co,447 Boston Post Rd,Sudbury,F,1776,,42.3604548,71.4237517,206281.256,901108.9,M,100
R390,Aldente Pizzaria,23 Sack Blvd,Leominster,R,1453,16.5,42.53168021,71.74448,179914.5378,920154.4367,M,100
R466,Alex's Roastbeef & Pizza,582 Dorchester Ave,Boston,R,2127,18,42.3299659,71.0569506,236515.3682,897814.3298,M,100
F14,Alfredo Aiello Italian Foods,122 Water St,Quincy,F,2169,,42.24204725,71.0027355,241040.5662,888073.5578,M,100
W11,Alfredo Aiello Itln Fd Rtlstr,8 Franklin St,Quincy,W,2169,,42.22638834,71.8338301,172441.221,886268.5603,T,66
R979,Alfresco Trattoria & Cafe,680 Main St,Holden,R,1520,22.5,42.33918753,71.8377773,172164.9816,898798.9118,M,100
R1428,Algiers Coffee House,40 Brattle St Ste 3,Cambridge,R,2138,27,42.373807,71.1213584,231185.4107,902658.4321,M,100
R980,Alicante Mediterranean Grille,84 Uxbridge Rd,Mendon,R,1756,22.5,42.09718262,71.5750888,193788.5241,871866.1573,M,100
R1391,All American Diner,60 Court St,Plymouth,R,2360,25.5,41.95867864,70.667911,268980.8594,856816.1968,M,100
W12,All Natural Distributors Inc,11 Perry Dr Ste F,Foxboro,W,2035,,42.05849996,70.7052092,265785.5931,867873.396,T,66
R2842,All Seasons Restaurant & Lounge,327 Plymouth St,Halifax,R,2338,48,41.99398538,70.8465699,254140.1772,860608.6171,M,100
F15,"Allcaneat Foods, Ltd.",937 N Main St,Randolph,F,2368,,42.18717995,71.0563556,236646.9004,881954.9277,M,100
F16,Alliance Food Services Inc,23 Deerfield Rd,Sherborn,F,1770,,42.22270321,71.3754951,210278.915,885812.8122,M,100
IH210,ALLIANCE HEALTHCARE CTR AT BRA,175 GROVE STREET,BRAINTREE,IH,2184,33.1785,42.19258562,70.9911721,242027.6903,882585.4046,M,100
R3248,Allora Ristorante,139 Lakeside Ave,Marlborough,R,1752,75,42.34228095,71.5668806,194488.8663,899089.5634,M,100
G14,Allston Deli,165 Allston St,Boston,G,2134,15,42.2944048,71.067611,235656.7874,893859.9004,M,62
W13,Alma Foods Inc,254 Tosca Dr,Stoughton,W,2072,,42.13624312,71.1243068,231058.7998,876270.3421,M,66
R3034,Alma Nove,22 Shipyard Dr,Hingham,R,2043,60,42.25006803,70.9224766,247658.4185,889006.172,M,64
F17,Als Beverage Company,250 Albany St,Springfield,F,1105,,42.11970913,72.575219,111089.8613,874925.8758,M,100
R1935,Al's Restaurant,136 Water St,Plymouth,R,2360,33,41.96106152,70.6675082,269011.6698,857081.1752,M,100
R981,Al's State Street Caf,112 State St,Boston,R,2109,22.5,42.35914008,71.0545982,236692.3255,901055.858,M,100
R467,Amanouz Cafe,44 Main St,Northampton,R,1060,18,42.31970185,72.6293968,106904.2712,897195.7509,M,100
W14,Amaral's Bakery Inc.,241 Globe St,Fall River,W,2724,,41.68877554,71.1763268,226946.8931,826553.1466,M,66
G15,Amarals Fish Market,488 Belleville Ave,New Bedford,G,2746,16.5,41.6645911,70.9230002,248055.1102,823978.4484,M,100
F18,Amaral's Linguica,433 S 2nd St,New Bedford,F,2740,,41.62185,70.92205,248166.4117,819231.9397,M,100
R1515,Amari Ristorante and Bar,674 Route 6a,East Sandwich,R,2537,30,41.72850932,70.3993159,291576.4143,831506.0335,M,100
R1936,Amarin of Thailand,287 Centre St,Newton,R,2458,33,42.35819763,71.1848118,225965.7383,900903.3474,M,100
F19,Ambika Foods Inc,50 Beharrell St,Concord,F,1742,,42.45724132,71.3948029,208652.7651,911862.2847,M,100
R982,Amelia's,78 Thatcher Rd,Gloucester,R,1930,22.5,42.62338688,70.6293239,271426.0066,930677.2531,M,100
W15,"Amerasia Trade, Corporation",31 Winnisimmet St,Chelsea,W,2150,,42.38749543,71.0402935,237853.7648,904211.695,M,66
R6,American Barbecue,5 Railroad Ave,Rowley,R,1969,15,42.72511226,70.8645603,252044.6009,941806.8565,M,100
F20,American By Products CO,14 Andrew St,Lynn,F,1901,,42.46411055,70.9476091,245430.4929,912767.0869,M,100
W16,American By Products Inc,13 Andrew St,Lynn,W,1901,,42.4112126,71.1461574,229125.707,906804.5504,T,66
R1516,American Classics Restaurant,740 Springfield St,Feeding Hills,R,1030,30,42.07690536,72.653851,104523.8386,870256.9947,M,100
G16,American Food Basket,942 Hyde Park Ave,Boston,G,2136,34.5,42.26759865,71.1209201,231273.9385,890861.5278,M,100
W17,American Fruit Distributors Inc,34 Market St Ste 18,Everett,W,2149,,42.85881168,70.9297154,246608.9634,956621.5672,T,66
F21,American Hard Cider Corp,2345 Washington St,Newton,F,2462,,42.3253638,71.2576304,219977.2001,897236.6944,M,100
IC1,American International College,1000 State Street,Springfield,IC,1109,128.638125,42.11367282,72.5574298,112552.4673,874237.0737,M,100
F22,American Nut & Chocolate Co,230 W Broadway,Boston,F,2127,,42.3397333,71.0522935,236893.5023,898901.2443,M,100
R468,American Pizza & Grill,2360 Cranberry Hwy,Wareham,R,2571,18,41.7815074,70.7441437,262835.6599,837079.9613,T,62
W18,American Pride Seafoods,40 Herman Melville Blvd,New Bedford,W,2740,,41.6402311,70.9236731,248017.3474,821272.5237,M,66
F23,American Seafoods Processing LLC,40 Herman Melville Blvd,New Bedford,F,2740,,41.6402311,70.9236731,248017.3474,821272.5237,M,100
R2047,American Seasons,80 Center St,Nantucket,R,2554,37.5,41.2869648,70.1022034,317097.699,782833.1329,M,100
F24,Amerifries Inc,190 Wildflower Dr,Amherst,F,1002,,42.3523917,72.4888999,118526.9127,900682.7639,M,100
IH1,AMESBURY HEALTH CENTER,24 MORRILL PLACE,AMESBURY,IH,1913,7.4898,42.84885682,70.9333156,246322.0714,955513.7137,M,100
R2048,Amesbury Playhouse Dinner Theatre,194 Main St,Amesbury,R,1913,37.5,42.85197571,70.9316954,246452.1997,955861.0746,M,100
IH211,AMESBURY VILLAGE,22 MAPLE STREET,AMESBURY,IH,1913,42.705,42.85565285,70.9418885,245616.3735,956264.0693,M,100
F25,Amherst Brewing Co Inc,36 N Pleasant St,Amherst,F,1002,,42.3764648,72.519881,116006.5461,903386.5942,M,100
R7,Amherst Chinese Food,62 Main St,Amherst,R,1002,15,42.37579,72.5183207,116134.148,903310.1087,M,100
IC2,Amherst College,100 Boltwood Ave,Amherst,IC,1002,116.802,42.3720654,72.5187921,116090.3825,902896.884,T,63
R8,Amici Trattoria,7 Summer St,Chelmsford,R,1824,15,42.59392529,71.3496329,212341.3616,927050.8698,M,100
F26,Amir's Caterers,29 Germania St,Jamaica Plain,F,2130,,42.31419543,71.1027502,232748.8276,896044.0371,M,100
F27,AML International,7 Conway St,New Bedford,F,2740,,41.62686,70.9170614,248578.3564,819791.2048,M,100
R2049,Amore Cafe,92 Shrewsbury St,Worcester,R,1604,37.5,42.26336727,71.7905823,176025.4473,890362.8713,M,100
R3035,Amrhein's,80 W Broadway,Boston,R,2127,60,42.34178961,71.0554433,236632.7504,899128.2904,M,100
F28,Amstell Beverage,209 Theodore Rice Blvd,New Bedford,F,2745,,41.7263284,70.9542593,245407.8777,830818.196,M,54
R1517,ANAM Cara Public House,1648 Beacon St,Brookline,R,2445,30,42.33924642,71.1363424,229967.6803,898814.2219,M,100
R2050,Anchor Post and Grill,20 Cabot St,Beverly,R,1915,37.5,42.54146076,70.8854241,250482.8125,921393.9622,M,100
IH212,ANCHORAGE NURSING HOME,904 MOHAWK TRAIL,SHELBURNE,IH,1370,11.169,42.59343114,72.6813966,103039.3339,927656.5892,M,80
R1518,Anchovies,433 Columbus Ave,Boston,R,2116,30,42.34384635,71.0776978,234797.8045,899347.4247,T,100
G17,Andersons Catering,42 Main St,Concord,G,1742,225,42.45993554,71.3501859,212322.1134,912167.0426,M,100
IC3,Andover Newton Theological School,210 Herrick Road,Newton,IC,2459,28.562625,42.32592992,71.1904886,225511.0825,897317.4793,M,96
R983,Andrea's Pizza Ristorante,186 Stafford St,Worcester,R,1603,22.5,42.2357371,71.8500406,171107.2556,887312.319,M,100
R469,Andrew's Diner,628 Trapelo Rd,Belmont,R,2478,18,42.3895461,71.1945353,225152.235,904382.5091,M,100
R3731,Angelica's,49 S Main St,Middleton,R,1949,150,42.5928594,71.0146601,239834.6814,927034.9198,M,100
R470,Angelina's,657 Main St,Dalton,R,1226,18,42.47311822,73.1630625,63251.33493,914953.7217,M,100
R471,Angelina's Submarine Shops,133 Elm St,Pittsfield,R,1201,18,42.4442433,73.2400256,56858.3206,911873.2241,M,100
R9,Angelina's Submarine Shops,100 Dalton Ave,Pittsfield,R,1201,15,42.4575051,73.2291493,57782.7881,913327.8358,M,100
R1339,Angelo's Orchid Diner,805 Rockdale Ave,New Bedford,R,2740,24,41.63553893,70.9490368,245907.5401,820737.4219,M,100
R391,Angelo's Pizzeria & Restaurant,239 Main St,Stoneham,R,2180,16.5,42.486179,71.1001121,232876.7467,915148.4065,M,100
R10,Angelo's Restaurant,237 Main St,Stoneham,R,2180,15,42.48633782,71.1001061,232877.1631,915166.0501,M,100
R472,Angie's Coffee Shop,7 Pleasant St,Newburyport,R,1950,18,42.80995643,70.8705263,251486.4177,951228.2918,M,100
F29,Anheuser Busch Inc,401 Edgewater Pl,Wakefield,F,1880,,42.52294366,71.0428882,237559.4812,919255.8273,M,100
IH100,ANNA JAQUES HOSPITAL,25 HIGHLAND AVENUE,NEWBURYPORT,IH,1950,69.28065,42.81488953,70.8906049,249840.2458,951764.3766,M,100
IC4,Anna Maria College,50 Sunset Lane,Paxton,IC,1612,73.85175,42.33006406,71.9194147,165432.6009,897815.3848,M,100
R1904,Anna's Taqueria,822 Somerville Ave,Cambridge,R,2140,31.5,42.38810699,71.1183237,231428.2429,904247.9346,M,100
IH213,ANNEMARK NURSING HOME,133 SALEM STREET,REVERE,IH,2151,45.99,42.43884129,71.0177288,239679.5498,909925.2667,M,100
G18,Annes Market,86 Main St,Medway,G,2053,15,42.15135835,71.4113837,207324.2433,877884.6271,M,100
G19,Annes Market,451 W Central St,Franklin,G,2038,18,42.08901527,71.4175817,206818.6633,870959.5592,M,100
G20,Annes Market,243 Pond St,Franklin,G,2038,24,42.09905519,71.4276778,205982.4405,872073.9491,M,100
R810,Annie S Country Kitchen,131 Main St,Sturbridge,R,1566,19.5,42.09290897,72.0680428,153007.677,871545.2211,M,100
R11,Ann's Cafeteria,117 Forest St,Saugus,R,1906,15,42.4770608,71.0276418,238840.4422,914166.0357,M,100
R2051,Ann's Catering Service,625 Union St,West Springfield,R,1089,37.5,42.09975147,72.6110649,108097.0496,872747.3219,M,100
IH603,ANN'S REST HOME,"66 BOWDOIN AVENUE, DORCHESTER",BOSTON,IH,2121,4.2705,42.30104411,71.0744548,235088.7412,894594.5166,M,100
R1519,Anthony T Pizzeria Restaurant,1016 Commonwealth Ave,Boston,R,2215,30,42.35171546,71.1214945,231185.0897,900204.5478,T,100
C1,Anthony's Cummaquid,Route 6A,Yarmouth,C,2675,13.7,41.70122998,70.2602201,303192.391,828635.2706,M,96
R3180,Anthony's Cummaquid Inn,2 Main St,Yarmouth Port,R,2675,67.5,41.70122998,70.2602201,303192.391,828635.2706,M,100
R1520,Anthony's Hawthorn,95 Oxford St,Lynn,R,1901,30,42.46430398,70.946122,245552.6614,912789.3656,M,100
C2,Anthony's Pier 4 Restaurant,140 Northern Avenue,Boston,C,2210,54.8,42.35109892,71.0438511,237582.4448,900167.365,M,100
R12,Anthony's Pier 4 Restaurant,299 Salem St,Swampscott,R,1907,15,42.48398977,70.8989796,249414.3289,915002.2538,M,100
R3645,Anthony's Pier 4 Restaurant,140 Northern Ave,Boston,R,2210,109.5,42.35109892,71.0438511,237582.4448,900167.365,M,100
R984,Anthonys Spadafora Caterers,105 Canal St,Malden,R,2148,22.5,42.42293417,71.0722405,235203.423,908134.4218,M,100
R985,Antonia's Pizza,31 N Pleasant St,Amherst,R,1002,22.5,42.37639019,72.5198796,116006.5587,903378.3056,M,100
R392,Antonio's Grinders,17 Longhill St,Springfield,R,1108,16.5,42.08707975,72.5794691,110692.5742,871306.41,M,100
R13,Antonio's Ristorante,15 Franklin St,Lenox,R,1240,15,42.35981501,73.2834067,53094.05781,902570.8692,M,100
R2891,Anzio Cafe,229 SW Cutoff,Worcester,R,1604,52.5,42.22880905,71.7560483,178863.1472,886515.2334,M,100
W19,AP Fish,1059 Grafton St,Worcester,W,1604,,42.24339869,71.756149,178859.7006,888135.7803,M,66
R2052,Apollo Grill,116 Pleasant St Ste 121,Easthampton,R,1027,37.5,42.2737755,72.6625451,104102.5115,892131.6529,M,100
R2053,Apollo's Restaurant,615 Washington St,Norwood,R,2062,37.5,42.19421478,71.2007493,224716.6864,882684.3608,M,100
R14,Appalachian Bean Cafe,174 Meadow St,North Adams,R,1247,15,42.69381678,73.1020717,68726.26992,939369.3177,M,100
R15,Apple Spice Junction,810 Boston Tpke,Shrewsbury,R,1545,15,42.27831304,71.690041,184324.3088,891999.5932,M,100
IH214,APPLE VALLEY CENTER,400 GROTON ROAD,AYER,IH,1432,40.4055,42.57789851,71.5718453,194101.8046,925262.169,M,100
R1521,Applebee's,70 WORCESTER PROVIDENCE TPKE,MILLBURY,R,1527,30,42.18515811,71.7637102,178215.6655,881668.7264,M,100
R2892,Applebee's,555 Hubbard Ave,Pittsfield,R,1201,52.5,42.46812082,73.1958672,60543.21974,914451.8328,M,100
R3036,Applebee's,95 Middlesex St,Malden,R,2148,60,42.4248001,71.069226,235450.4629,908342.9323,M,100
R3249,Applebee's,251 N Main St,Leominster,R,1453,75,42.5408715,71.75997,178645.0599,921179.179,M,100
R3250,Applebee's,200 Hancock St,Quincy,R,2171,75,42.2786033,71.0318022,238619.3514,892120.3638,M,100
R3251,Applebee's,1349 Boston Rd,Springfield,R,1119,75,42.1407899,72.4990355,117416.6253,877190.5989,M,100
R3252,Applebee's,525 Washington St,Stoughton,R,2072,75,42.13167985,71.1017274,232927.8087,875771.965,M,100
R3253,Applebee's,441 E Main St,Westfield,R,1085,75,42.11269375,72.7205241,99064.16759,874308.4402,M,100
R3254,Applebee's,632 Park Ave,Worcester,R,1603,75,42.24680215,71.8342075,172418.95,888536.1082,M,100
R3388,Applebee's,311 Plymouth Ave,Fall River,R,2721,76.5,41.6957105,71.1517225,228992.1272,827331.4591,M,100
R3389,Applebee's,91 Medway Rd Ste 1,Milford,R,1757,76.5,42.14847433,71.4932727,200556.0422,877560.5104,M,100
R3390,Applebee's,105 Highland Ave,Seekonk,R,2771,76.5,41.80122004,71.3359601,213632.8826,839004.1031,M,100
R3391,Applebee's,2 Elmwood Ter,Woburn,R,1801,76.5,42.50481508,71.1291795,230477.9926,917207.6941,M,81
R3395,Applebee's,222 Washington St,Hudson,R,1749,78,42.37972173,71.5664229,194529.82,903248.3353,M,100
R3474,Applebee's,141 Mohawk Trl,Greenfield,R,1301,90,42.58472948,72.6182656,108207.699,926620.2159,M,100
R3475,Applebee's,100 Westgate Center Dr,Hadley,R,1035,90,42.36165544,72.5427815,114100.5319,901764.5413,M,100
R3476,Applebee's,900 S Washington St,North Attleboro,R,2760,90,41.9528563,71.3443299,212906.557,855844.822,M,100
R3477,Applebee's,ROBINS RD,SAUGUS,R,1906,90,42.44734631,71.0260697,238988.045,910866.134,M,51
R3478,Applebee's,120 Charlton Rd Ste 6,Sturbridge,R,1566,90,42.12534802,72.0556091,154059.7282,875141.4268,M,100
R3479,Applebee's,85 Main St,Tewksbury,R,1876,90,42.62718429,71.2706365,218815.0286,930759.8331,M,100
R3582,Applebee's,680 Southbridge St,Auburn,R,1501,97.5,42.1843193,71.8577951,170443.2375,881603.8737,M,100
R3614,Applebee's,50 Independence Way Ste 5,Danvers,R,1923,105,42.54933212,70.9407371,245933.5973,922237.045,M,100
IH604,APPLEWOOD A HOME FOR ELDERS,171 SO. ROYALSTON ROAD,ATHOL,IH,1331,10.512,42.58302459,72.1823098,143990.4027,926053.1258,M,100
R3037,Aqua Grille,14 Gallo Rd,Sandwich,R,2563,60,41.76911382,70.5008131,283079.468,835911.6343,M,100
R986,Aqua Vitae Restaurant,73 Barrett St APT 1005,Northampton,R,1060,22.5,42.3337796,72.6402206,106033.022,898771.1811,M,100
W20,Aquacultural Research Corp.,99 Chapin Beach Rd,Dennis,W,2638,,41.73634785,70.2280779,305809.3706,832574.691,M,51
W21,Aquahealth Inc,475 Washington St Ste 2,Wrentham,W,2093,,42.10609073,70.9458857,245830.5709,873001.7277,T,66
W22,"Aquanor Marketing, Inc.",2 Food Mart Rd,Boston,W,2118,,42.33459222,71.0622147,236078.8763,898325.9569,M,66
R16,Aquinnah Restaurant,27 Aquinnah Cir,Chilmark,R,2535,15,41.34771866,70.8356292,255605.7433,788838.077,M,100
R1522,Aquitaine,569 Tremont St,Boston,R,2118,30,42.3436275,71.0722853,235243.91,899325.3381,M,100
F30,Araban Coffee Co. Inc.,2 Keith Way,Hingham,F,2043,,42.1763999,70.905277,249134.7983,880833.5477,M,100
R1992,Aramark,291 Springfield St,Chicopee,R,1013,34.5,42.14199692,72.6026465,108854.006,877430.1715,M,100
IH12,ARBOUR HOSPITAL,49 ROBINWOOD AVENUE,BOSTON,IH,2130,0,42.31598981,71.1117241,232008.1295,896239.9398,M,100
IH43,ARBOUR HUMAN RESOURCE INSTITUT,227 BABCOCK STREET,BROOKLINE,IH,2146,0,42.35115313,71.1214075,231192.5343,900142.1188,M,100
IH5,ARBOUR FULLER HOSPITAL,200 MAY STREET,ATTLEBORO,IH,2703,0,41.92574531,71.358794,211712.3297,852831.5396,M,100
R1340,Arby's,644 Riverdale St,West Springfield,R,1089,24,42.12347545,72.6257287,106918.9607,875398.0573,M,100
R1523,Arby's,622 Park Ave,Worcester,R,1603,30,42.24693873,71.8340665,172430.6439,888551.2322,M,100
R17,Arby's,10 Maplecrest Dr,Southborough,R,1772,15,42.31735193,71.5203809,198319.903,896318.5876,M,100
R1993,Arby's,406 Southbridge St,Auburn,R,1501,34.5,42.20254459,71.8383489,172057.6743,883621.6421,M,100
R2054,Arby's,1483 Granby Rd,Chicopee,R,1020,37.5,42.17923129,72.5807482,110716.4402,881542.386,M,100
F31,Arcade Snacks & Dried Fruits,205 Southbridge St,Auburn,F,1501,,42.21604776,71.8276788,172944.6133,885118.0335,M,100
R2502,Ardeo On Main,644 Main St,Hyannis,R,2601,45,41.64893224,70.2913345,300685.0857,822790.0943,M,100
R3255,Ardeos,WERI RD,YARMOUTH PORT,R,2664,75,41.70492548,70.2223386,306339.0545,829092.2049,M,51
R18,Aris Eat Barbecue,1 Faneuil Hall Marketplace,Boston,R,2109,15,42.3599948,71.0556558,236604.7063,901150.3419,M,70
F32,Aristocrat Products Inc,17 Taft St,Upton,F,1568,,42.18031539,71.5854866,192937.6522,881100.6954,M,100
R3780,Arizona Pizza,395 Pittsfield Lenox Rd,Lenox,R,1240,165,42.39791932,73.2685909,54402.06653,906777.0695,M,100
F33,"Arlington Candy Co., Inc",2 Draper St,Woburn,F,1801,,42.47773369,71.1275512,230624.9611,914200.0965,M,100
IH605,ARLINGTON REST HOME INC,129 LAKE STREET,ARLINGTON,IH,2474,6.2415,42.40370962,71.1504263,228777.7437,905969.6926,M,100
R19,Arlington Restaurant & Diner,134 Massachusetts Ave,Arlington,R,2474,15,42.404067,71.140083,229629.0558,906012.9307,M,100
G21,Armatas Supermarket,115 Main St,Monson,G,1057,67.5,42.09952083,72.3156859,132528.5199,872445.7494,M,100
IH215,ARMENIAN NURSING & REHAB CENTE,431 POND STREET,BOSTON,IH,2130,27.2655,42.30954433,71.1315074,230380.3654,895516.7761,M,100
W23,Armeno Coffee Roasters Ltd,75 Otis St,Northborough,W,1532,,42.22320281,71.8462461,171414.8075,885918.8206,T,66
IH216,ARNOLD HOUSE NURSING HOME,490 WILLIAM STREET,STONEHAM,IH,2180,7.227,42.48940984,71.1151431,231639.3688,915501.6006,M,100
F34,Arnold of Boston,561 Windsor St,Somerville,F,2143,,42.3752253,71.0928364,233533.7481,902826.7917,M,100
R3256,Arnold's Clam Bar,3580 State Hwy,Eastham,R,2642,75,41.84297828,69.9825644,326020.6279,844750.008,M,100
W24,Arrow Packing Co,57 New England Prod Ctr,Chelsea,W,2150,,42.39529006,71.0527082,236826.9629,905072.0561,M,60
W25,Arthur G Silk Inc,44 New England Prod Ctr,Chelsea,W,2150,,42.39529006,71.0527082,236826.9629,905072.0561,M,52
F35,Art's International Wholesale,104 Forge River Pkwy,Raynham,F,2767,,41.90996124,71.0624063,236305.0506,851161.8509,M,100
R3038,Arturo's Ristorante,54 E Main St,Westborough,R,1581,60,42.27391264,71.610435,190890.034,891499.2545,M,100
R987,Ascari Restaurant,290 Wood Rd,Braintree,R,2184,22.5,42.22048542,71.0382031,238126.3265,885662.1808,M,100
R3181,Asgard Irish Pub & Restaurant,350 MASSACHUSETTS AVE,CAMBRIDGE,R,2139,67.5,42.36278633,71.0992732,233010.1116,901442.6126,M,100
G22,Ashburnham Market Place,50 Rear Main St,Ashburnham,G,1430,30,42.63576,71.9098145,166386.9741,931767.9156,M,100
G24,Assinippi Eating Establishment,210 Washington St,Hanover,G,2339,25.5,42.11350741,70.813297,256790.0854,873905.2481,M,100
G25,Assinippi Eating Establishment,2103 Washington St,Hanover,G,2339,25.5,42.15650955,70.8499707,253720.8425,878657.68,M,100
R2055,Assonet Inn,16 Water St,Assonet,R,2702,37.5,41.79415088,71.0707438,235678.0683,838295.6118,M,100
IC5,Assumption College,500 Salisbury Street,Worcester,IC,1615,196.04025,42.2895814,71.8301777,172769.9058,893286.4667,M,100
R1524,Atasca Restaurant,50 Hampshire St,Cambridge,R,2139,30,42.3669174,71.0925413,233562.4604,901904.1013,M,100
R3039,Atg Clerys The,113 Dartmouth St,Boston,R,2116,60,42.34631976,71.0755304,234975.0252,899623.0455,M,100
F36,Athans Bakery,533 Washington St,Boston,F,2135,,42.2928317,71.0718218,235310.4255,893683.4184,T,100
G26,Athena International Foods,77 Legion Pkwy,Brockton,G,2301,16.5,42.08408557,71.0214891,239591.2234,870519.7708,M,100
R473,Athenian Corner,207 Market St,Lowell,R,1852,18,42.64463353,71.3129347,215341.0005,932689.7052,M,100
R474,Athen's Pizza,671 Moody St,Waltham,R,2453,18,42.36468562,71.2385056,221540.1599,901609.0568,M,100
IH4,ATHOL MEMORIAL HOSPITAL,2033 MAIN STREET,ATHOL,IH,1331,15.60375,42.58619872,72.2085081,141842.8124,926423.2391,M,100
R988,Athol Steak House,14 Grove St,Athol,R,1331,22.5,42.58996397,72.2150143,141312.2734,926845.9379,M,100
G27,Atkins Farm Country Market,1150 West St,Amherst,G,1002,225,42.3186798,72.5286094,115210.3453,896977.1384,M,100
R3480,Atlantic Cafe The,15 S Water St,Nantucket,R,2554,90,41.2846205,70.098309,317428.1899,782578.1415,M,100
W26,Atlantic Choice Inc.,7 Conway St,New Bedford,W,2740,,42.55934917,70.8956446,249629.2084,923374.9955,T,66
F37,Atlantic Coast Brewing Ltd,420 Rutherford Ave,Boston,F,2129,,42.3794342,71.0710995,235321.6205,903303.0725,M,100
F38,Atlantic Coast Fisheries Corp,200 Herman Melville Blvd,New Bedford,F,2740,,41.64496017,70.9240323,247983.8788,821797.556,M,100
W27,Atlantic Coast Seafood Inc,42 Fish Pier St W,Boston,W,2210,,42.3502232,71.0386497,238011.5114,900072.3995,M,66
W28,Atlantic Coast Seafood Market,175 Alley St,Lynn,W,1905,,42.45724736,70.956234,244726.0237,912000.1851,M,66
R3732,Atlantic Fish & Shop House,2 Main St,Edgartown,R,2539,150,41.38913452,70.5122648,282616.0445,793699.8815,M,100
R3686,Atlantic Fish Company,761 Boylston St,Boston,R,2116,117,42.34902673,71.081154,234510.1867,899921.4315,M,100
G28,Atlantic Food Mart Inc,30 Haven St Ste 32,Reading,G,1867,300,42.522265,71.10655,232328.972,919154.3604,M,100
W29,Atlantic Frost Seafoods LLC,460 County St,New Bedford,W,2740,,41.93364552,71.3003362,216559.0488,853718.6963,T,66
C3,Atlantic Resort Development Limited,212 Mid Tech Dr,West Yarmouth,C,2673,0,41.68229461,70.2497477,304094.8171,826545.1116,M,100
IH606,ATLANTIC REST HOME,60 ATLANTIC STREET,LYNN,IH,1902,6.8985,42.46272728,70.9331509,246620.5927,912621.2385,M,100
W30,"Atlantic Seacove, Inc.",20 Newmarket Sq,Boston,W,2118,,42.33006511,71.0654493,235814.8719,897821.746,M,66
IC6,Atlantic Union College,338 Main Street,Lancaster,IC,1523,34.72875,42.44479075,71.6842203,184844.3714,910490.3156,M,100
R2056,Atlantica Restaurant,44 Border St,Cohasset,R,2025,37.5,42.23937411,70.7912261,258499.13,887900.0638,M,100
R2057,Atlantis,41 Boltwood Walk,Amherst,R,1002,37.5,42.3763402,72.5191082,116070.0208,903371.9934,M,100
F39,Atlantis Sea Foods,18 Beach St,Bourne,F,2553,,41.71914103,70.6129173,273816.4182,830258.4967,M,100
R2503,Atria Restaurant,137 Upper Main St,Edgartown,R,2539,45,41.39221296,70.5234356,281677.8238,794031.0191,M,100
R989,Attleboro Union Station,88 Union St,Attleboro,R,2703,22.5,41.94151762,71.2829205,218001.1881,854596.5709,M,100
R1525,Au Bon Pain,18 Holland St,Somerville,R,2144,30,42.39686423,71.1228067,231054.7965,905219.0157,M,100
F40,Au Soleil,148 Hampden St,Roxbury,F,2119,,42.32788118,71.0751463,235016.8794,897575.1403,M,100
R3257,Auburn Piccadilly Pub,602 Southbridge St,Auburn,R,1501,75,42.18987291,71.8470294,171335.0782,882217.0504,M,100
G29,Auclairs Market Inc,145 County St,Somerset,G,2726,67.5,41.736041,71.1513155,229007.6939,831810.9792,M,100
R2391,Audobon Circle Restaurant,838 Beacon St,Boston,R,2215,40.5,42.34719971,71.1030531,232706.8012,899709.8668,M,100
R990,Aura,1 Seaport Ln,Boston,R,2210,22.5,42.3495873,71.0408246,237832.6999,900000.7995,M,100
R1429,Aurora Restaurant,310 Congress St,Boston,R,2210,27,42.35134299,71.0499925,237076.3065,900191.7867,M,100
IH217,AUTUMN VILLAGE LLC,25 ORIOL DRIVE,WORCESTER,IH,1605,52.56,42.29608762,71.7681468,177887.9088,893991.2003,M,100
R1526,Autumn Wood Restaurant,7 Ruth St,Lunenburg,R,1462,30,42.54841155,71.6845858,184839.2104,922000.6032,M,100
C4,Avalon,15 Lansdowne Street,Boston,C,2215,22.8,42.34717001,71.0950416,233366.9221,899709.6704,M,100
F41,"Avon Food Compay, LLC",30 James Massey Ln,Stoughton,F,2072,,42.1271481,71.0862518,234209.709,875274.7103,M,63
R2893,Avon Towne House,81 Memorial Dr,Avon,R,2322,52.5,42.1193914,71.0316422,238729.6517,874436.5201,M,100
R3258,Azure Restaurant,65 Exeter St,Boston,R,2116,75,42.34891781,71.0792205,234669.5542,899910.1179,M,100
W31,B & B Trading Corporation,11 Widett Cir,Boston,W,2118,,42.33455654,71.0634902,235973.7829,898321.4547,M,66
R2872,B & D Delicatessen,1653 Beacon St,Brookline,R,2445,49.5,42.33888261,71.1366684,229940.9888,898773.6975,M,100
F42,B & MFish CO,312 Northern Ave,Boston,F,2210,,42.34609466,71.0340785,238390.645,899615.8697,M,100
991,B Good,272 Newbury Street,Boston,R,2116,22.5,42.3492978,71.083608,234307.8505,899950.5513,M,100
R1336,B Good,137 Massachusetts Ave,Boston,R,2115,22.5,42.34708804,71.0876171,233978.7102,899703.4965,M,100
R1337,B Good,255 Washington Avenue,Boston,R,2108,22.5,42.30136688,71.0766997,234903.4608,894629.4468,T,81
R1527,B Good,131 Dartmouth St,Boston,R,2116,30,42.3467292,71.0757213,234959.0675,899668.4459,M,100
W32,B N Y International Inc,10 Main St,Northborough,W,1532,,42.13288782,71.0398853,238039.9321,875931.861,T,66
R2392,Babe's Place,11 Washington St Ste 1,Attleboro,R,2703,40.5,41.9308984,71.3530322,212189.2584,853404.6961,M,100
IC7,Babson College,Babson Park Ave,Wellesley,IC,2492,227.50875,42.29678257,71.2578621,219967.1154,894061.976,M,59
C5,Babson Exec Conference Ctr,1 Woodland Hl,Wellesley,C,2481,0,42.29789008,71.2738503,218648.3752,894181.3732,M,100
G30,Baby Nats Fruits & Vegetables,606 American Legion Hwy,Boston,G,2131,30,42.2857332,71.1098881,232174.854,892879.9022,M,100
R1528,Bacco Ristorante & Bar,107 Salem St,Boston,R,2113,30,42.3641536,71.0555194,236613.5356,901612.3402,M,100
R1341,Back Bay Bagel Company,1260 Belmont St,Brockton,R,2301,24,42.05880319,71.0675358,235795.6701,867691.3224,M,100
C6,Back Bay Hotel Boston,350 Stuart St,Boston,C,2116,0,42.3494871,71.0722498,235243.5712,899976.2082,M,100
R3000,Back Deck of Boston The,25 West St,Boston,R,2111,55.5,42.35469135,71.0623664,236054.916,900558.4018,M,100
R3730,Back Eddy,1 BRIDGE RD,WESTPORT,R,2790,148.5,41.5141105,71.0683818,236031.7787,807193.5417,M,59
R3259,Backstage Concessions,50 E Merrimack St,Lowell,R,1852,75,42.64463491,71.3036029,216106.2842,932691.5792,M,100
F43,Bagel Boy Inc.,485 S Union St,Lawrence,F,1843,,42.68977206,71.1531373,228425.3462,937744.9393,M,100
R2406,Bagel Inn The,785 Main St,Holden,R,1520,42,42.34170167,71.8431267,171725.2835,899079.9304,M,100
R20,Bagel Rising,1243 Commonwealth Ave,Allston,R,2134,15,42.35018931,71.1316777,230346.8283,900031.3569,M,100
R475,Bagel Shop,1181 Boston Rd,Haverhill,R,1835,18,42.74375244,71.1100955,231925.1785,943756.6709,M,100
R476,Bagel Time,194 Park Ave,Worcester,R,1609,18,42.2725138,71.8142941,174072.8498,891385.7485,M,100
R2504,Bailey's Surf & Turf,3056 Cranberry Hwy,Wareham,R,2571,45,41.76197907,70.6742504,268666.8393,834964.9593,T,60
R2505,Baked Corp,22 Lincoln Ave,Saugus,R,1906,45,42.45873897,70.9894127,241996.0439,912149.0026,M,100
F44,Bake'N Joy Foods Inc,351 Willow St S,North Andover,F,1845,,42.6584246,71.1139343,231653.7654,934276.5057,M,100
F45,Baker Commodities Inc,134 Billerica Ave,Billerica,F,1862,,42.60445158,71.2837153,217748.5611,928231.7929,M,100
IH607,BAKER MANOR REST HOME,16 BAKER STREET,LYNN,IH,1902,4.9275,42.46422963,70.9576231,244606.8369,912775.029,M,100
R992,Baker Manor Rest Home,16 Baker St,Lynn,R,1902,22.5,42.46422963,70.9576231,244606.8369,912775.029,M,100
W33,Baker Sugarplum,161 Summer St Ste 5,Kingston,W,2364,,42.10290202,70.9427958,246088.4446,872649.2246,T,66
IH218,BAKER KATZ NURSING HOME THE,194 BOARDMAN STREET,HAVERHILL,IH,1830,25.2945,42.77198621,71.0593804,236061.4719,946913.317,M,100
R3798,Bakers' Best,27 Lincoln St,Newton,R,2461,225,42.35600256,71.1992439,224777.6617,900655.2352,M,81
F46,Baker's Slaughter House,235 Locust St,Swansea,F,2777,,41.77574884,71.2095885,224144.8623,836203.0595,M,100
IH67,BALDPATE HOSPITAL,BALDPATE ROAD,GEORGETOWN,IH,1833,0,42.72022441,71.0068234,240396.0706,941186.7975,T,63
R883,Balduccis Pizza,35 Billings Rd,Quincy,R,2171,21,42.2734341,71.0253863,239151.7571,891549.1296,M,100
IH219,BALDWINVILLE NURSING HOME,"51 HOSPITAL ROAD, BOX 24",TEMPLETON,IH,1436,30.879,42.60982655,72.0614523,153930.8203,928957.9869,M,100
R993,Bali Hai,93 Moulton Dr,Lynnfield,R,1940,22.5,42.51669853,71.0030336,240838.2191,918580.4368,M,100
C7,Ballymeade Functions,125 Falmouth Woods Rd.,Falmouth,C,2536,22.8,41.6311478,70.6001731,274979.9537,820496.9431,M,100
R2058,Bamboo Fine Asian Cuisine,1 Lan Dr,Westford,R,1886,37.5,42.56145645,71.4315349,205622.1609,923435.5123,M,100
R994,Bangkok Bistro,1952 Beacon St,Brighton,R,2135,22.5,42.33605248,71.1505808,228795.8073,898454.5503,M,100
R477,Bangkok Blue,651 Boylston St FL 2,Boston,R,2116,18,42.34980286,71.0783642,234739.6185,900008.7734,M,100
R478,Bangkok Paradise,90 Washington St,Salem,R,1970,18,42.5220296,70.8957515,249649.7947,919229.5124,M,100
R995,Bangna Garden Restaurant,77 Summer St,Kingston,R,2364,22.5,41.99904716,70.7304617,263755.0516,861251.0508,M,100
R21,Banshee,934 Dorchester Ave,Boston,R,2125,15,42.31889542,71.0567419,236538.9605,896584.7721,M,100
R3733,Barbers Crossing North,175 Leominster Rd,Sterling,R,1564,150,42.46175254,71.7457338,179789.1511,912387.166,M,100
R2059,Barbyann's,120 Airport Rd,Hyannis,R,2601,37.5,41.67239013,70.2956343,300290.1322,825390.1812,M,100
R996,Barefoot Bobs Beach Grill,276 Nantasket Ave,Hull,R,2045,22.5,42.27377934,70.8608496,252724.1874,891676.0907,M,100
F47,Bari & Gail Inc,24 Walpole Park S,Walpole,F,2081,,42.11379292,71.2430005,221253.8684,873740.3746,M,100
R3649,Barker Tavern,21 Barker Rd,Scituate,R,2066,112.5,42.2031686,70.7264748,263879.7487,883925.188,M,100
R2060,Barking Crab,88 Sleeper St,Boston,R,2210,37.5,42.35368361,71.0479883,237240.0604,900452.6448,M,100
R1529,Barking Dog Bar & Grill,21 Friend St,Amesbury,R,1913,30,42.85705694,70.9315856,246457.4189,956425.6121,M,100
W34,Barleycorns Craft Brew Inc,21 Summer St,Natick,W,1760,,42.10288427,70.9482933,245633.7422,872644.2978,T,66
R2061,BarLola Tapas Lounge,160 Commonwealth Ave,Boston,R,2116,37.5,42.35161009,71.078539,234724.2282,900209.4398,M,100
R479,Barlows Cafe,241 A ST,BOSTON,R,2135,18,42.3467917,71.0512839,236972.5736,899685.692,M,100
R480,Barn of Amesbury,5 Ring St,Amesbury,R,1913,18,42.85793144,70.9287004,246692.5759,956524.3366,M,100
R1530,Barnacle Restaurant,141 Front St,Marblehead,R,1945,30,42.50674702,70.8446915,253858.2484,917562.9351,M,100
R2506,Barnacle Snack Bar,988 Craigville Beach Rd,Centerville,R,2632,45,41.6372177,70.3397046,296673.6786,821433.1536,M,100
R2062,Barnstable Tavern & Grille,3180 ROUTE 6A,BARNSTABLE,R,2630,37.5,41.70091284,70.2889496,300801.7678,828565.696,M,51
G31,Barre Foods Inc,596 Summer St,Barre,G,1005,52.5,42.40960781,72.0978759,150786.2901,906738.3618,M,100
C8,Barrett's on Boston Harbour,2 Constitution Plaza,Boston,C,2129,11.4,42.37140848,71.056767,236506.5828,902417.6448,M,100
R3791,Barretts Restaurants,1235 Bedford St,Abington,R,2351,195,42.13739834,70.9503681,245437.4303,876476.6493,M,100
F48,Barrington Coffee Roasting Co,955 Main St Ste 1,Great Barrington,F,1230,,42.17042717,73.3633307,46051.931,881680.4445,M,100
R22,Barry's Delicatessen,21 Beale St,Quincy,R,2170,15,42.2672361,71.0169371,239852.6419,890864.6124,M,100
R1392,Barry's Village Deli,6 Windsor Rd,Waban,R,2468,25.5,42.3269159,71.2304659,222215.6694,897415.8136,M,100
F49,Bar Tender Brand Div,167 Moore Rd,East Weymouth,F,2189,,42.19280079,70.9254591,247455.1486,882643.7727,M,100
R1531,Bartley's Burger Cottage,1246 Massachusetts Ave,Cambridge,R,2138,30,42.37259813,71.1161357,231616.161,902526.0779,M,100
F50,Barts Homemade,80 School St,Greenfield,F,1301,,42.59004028,72.6009158,109639.3865,927191.5814,M,100
W35,Bashas Natural Market Place,190 Washington St,Hudson,W,1749,,42.0984916,70.9503712,245465.0243,872155.298,T,66
R884,Basil Tree,514c Medford St,Somerville,R,2145,21,42.39643868,71.1036774,232629.9481,905178.8881,M,100
F51,Baskin Robbins,545 Lincoln St,Worcester,F,1605,,42.2955635,71.7716572,177598.2508,893933.8991,M,100
R1994,Baskin Robbins,1862 Ocean St,Marshfield,R,2050,34.5,42.09220904,70.7034036,265900.076,871618.7305,M,100
R1995,Baskin Robbins,61 Main St,Salisbury,R,1952,34.5,42.869505,70.88326,250397.078,957835.915,M,100
R23,Baskin Robbins,31 Main St,Milford,R,1757,15,42.14348233,71.5150633,198754.8428,877006.1259,M,100
R997,Baskin Robbins,1539 Broadway,Saugus,R,1906,22.5,42.45427898,71.0236093,239186.1505,911637.3243,M,100
IH220,BAY PATH AT DUXBURY N & REHAB,308 KINGSTOWN WAY,DUXBURY,IH,2332,39.42,42.02991661,70.7385664,263053.0004,864673.5648,M,100
IC8,Bay Path College,588 Longmeadow Street,Longmeadow,IC,1106,103.194,42.05521281,72.5816793,110464.8416,867769.5175,M,100
IH85,BAY RIDGE HOSP SAT BEVERLY HOS,60 GRANITE STREET,LYNN,IH,1904,38.6973,42.47264719,70.9566607,244680.0339,913710.5334,M,100
W36,Bay State Bakery Inc,96 Water St,Worcester,W,1604,,42.19362126,71.8471738,171324.8442,882633.4357,T,66
IC63,Bay State College,122 Commonwealth Ave.,Boston,IC,2116,14.7042,42.35212385,71.0766489,234879.6621,900267.2769,M,100
IP1,Bay State Correctional Center,28 Clark St.,Norfolk,IP,2056,56.7575,42.120679,71.301563,216408.9679,874492.3017,M,100
F52,Bay State Milling Co Inc,9 Naugatuck Ave,Norfolk,F,2056,,42.14614193,71.32061,214828.0136,877317.0155,M,100
F53,Bay State Milling Company,100 Congress St Ste 2,Quincy,F,2169,,42.23285163,71.0146114,240066.2444,887046.5342,M,64
W37,Bay State Seafood Express Corp.,155 Webster St Ste B,Hanover,W,2339,,42.41792368,71.1430214,229380.7144,907551.0736,T,66
IH221,BAYPOINTE REHAB & SKILLED CARE,50 CHRISTY PLACE,BROCKTON,IH,2401,55.5165,42.09006222,71.054614,236847.0845,871168.7525,M,100
F54,Bayside Cranberries,Whig,Dennis,F,2638,,41.73667305,70.2009775,308063.0912,832644.783,M,44
C9,Bayside Expo Center,200 Mount Vernon Street,Boston,C,2125,657,42.31968122,71.0475243,237298.3208,896676.0441,M,100
C10,Bayside Resort Hotel,225 Main St,West Yarmouth,C,2673,0,41.65530498,70.2558899,303627.1862,823540.2772,M,100
R24,Baystate Chowder,109 Main St,North Andover,R,1845,15,42.70314424,71.1313069,230207.9129,939237.9046,M,100
IH70,BAYSTATE FRANKLIN MEDICAL CENT,164 HIGH STREET,GREENFIELD,IH,1301,56.1735,42.59558799,72.5913032,110436.2094,927797.6511,M,100
IH133,BAYSTATE MARY LANE HOSPITAL,85 SOUTH STREET,WARE,IH,1082,15.60375,42.25334741,72.2412443,138834.4606,889474.8577,M,100
IH121,BAYSTATE MEDICAL CENTER,759 CHESTNUT STREET,SPRINGFIELD,IH,1199,411.31485,42.12075703,72.6052361,108609.3866,875073.983,M,100
G32,Baza,30 Tower Rd,Newton,G,2464,36,42.31094704,71.2146677,223523.7212,895646.3045,M,100
G33,Bazaar On Cambridge,424 Cambridge St,Allston,G,2134,22.5,42.35466962,71.134798,230087.616,900527.9047,M,100
R481,Bazels Sub & Pizza Shop,1568 Washington St,Holliston,R,1746,18,42.18000017,71.4493053,204188.0872,881063.3883,M,100
G34,Bbn New York Inc,186 South St,Boston,G,2111,300,42.35044911,71.0574335,236463.7644,900089.2916,M,100
R2894,Beach Plum Inn,50 BEACH PLUM LN,CHILMARK,R,2552,52.5,41.34383254,70.8148317,257349.8623,788420.2348,M,81
R1532,Beach Tree,297 Main St,Harwich Port,R,2646,30,41.67029854,70.0951204,316989.782,825413.2911,T,63
W38,Beacon Fruit & Produce Co.,119 New England Prod Ctr,Chelsea,W,2150,,42.39529006,71.0527082,236826.9629,905072.0561,M,54
R1533,Beacon Hill Bistro,25 Charles St,Boston,R,2114,30,42.3566493,71.0697051,235449.2213,900772.8053,T,100
G35,Beacon Hill Market,55 Anderson St,Boston,G,2114,22.5,42.3593178,71.0676709,235615.3022,901070.0572,M,100
R3260,Beacon Restaurant,761 BEACON ST,NEWTON CENTER,R,2459,75,42.33052822,71.1918792,225394.6223,897827.8226,M,58
R1393,Beansprout Restaurant,270 Medford St,Malden,R,2148,25.5,42.41762128,71.0757203,234919.9836,907542.8522,M,100
F55,Beantown Bagels Inc,83 Mount Auburn St,Cambridge,F,2138,,42.37217845,71.1191386,231369.0408,902478.3532,M,100
IH222,BEAR HILL NURSING CTR AT WAKEF,ENTER 11 NORTH STREET,STONEHAM,IH,2180,55.5165,42.50181191,71.0988641,232971.1862,916885.3781,M,100
IH223,BEAUMONT AT UNIVERSITY CAMPUS,378 PLANTATION STREET,WORCESTER,IH,1605,53.874,42.28010933,71.7642641,178202.5846,892215.4199,M,100
IH224,BEAUMONT R&SNC at NATICK,3 VISION DRIVE 2ND FLOOR,NATICK,IH,1760,17.4105,42.30133284,71.3549438,211960.7381,894549.2272,M,100
IH225,BEAUMONT R&SNC AT NORTHBRIDGE,85 BEAUMONT DRIVE,NORTHBRIDGE,IH,1534,50.589,42.15652891,71.6516446,187467.4151,878466.2699,M,100
IH226,BEAUMONT REHAB & SKILLED NURS,3 LYMAN STREET,WESTBOROUGH,IH,1581,49.932,42.27961456,71.6063793,191225.3874,892132.1686,M,100
IH227,BEAUMONT REHAB & SNC OF NORTHB,238 WEST MAIN STREET,NORTHBOROUGH,IH,1532,31.536,42.31060594,71.655085,187214.2017,895580.6946,M,100
IH608,BEAVEN KELLY HOME,25 BRIGHTSIDE DRIVE,HOLYOKE,IH,1040,18.7245,42.16390157,72.6340192,106293.1985,879896.9585,M,100
IC9,Becker College,61 Sever Street,Worcester,IC,1609,123.251625,42.2688769,71.8114748,174303.9469,890980.9305,M,100
R998,Bedford Farms Ice Cream,18 North Rd Ste 1,Bedford,R,1730,22.5,42.49447417,71.2852113,217656.5588,916015.0003,M,100
IH228,"BEDFORD VILLAGE NURSING HOME,",9 POPE STREET,NEW BEDFORD,IH,2740,23.9805,41.6451355,70.9287451,247591.1287,821814.3884,M,100
W39,"Beekman Foods, Inc.",300 Wildwood Ave Ste 12,Woburn,W,1801,,42.49331289,71.1367314,229862.7378,915927.3646,T,66
R1937,Beijing Duck,731 Granite St,Braintree,R,2184,33,42.2068639,71.0219274,239478.5302,884156.6184,M,100
R25,Beijing House,456 Washington St,Norwell,R,2061,15,42.15950041,70.8537837,253403.2098,878987.4782,M,100
R482,Beijing Palace,24 ELLIOT ST,CHESTNUT HILL,R,2461,18,42.32706904,71.1446937,229285.1222,897458.7175,M,92
R483,Bell In Hand Tavern,45 Union St,Boston,R,2108,18,42.36122533,71.0569556,236496.917,901286.4661,M,100
G36,Bell Market,206 Cabot St,Beverly,G,1915,75,42.54815013,70.8787749,251023.5663,922140.9676,M,100
R484,Bella Casa Pizza,454 Main St,Medfield,R,2052,18,42.18690117,71.3047807,216126.069,881847.1117,M,100
R26,Bella Ciao,402 Grove St,Worcester,R,1605,15,42.28705071,71.8073415,174652.2051,892998.3338,M,100
R999,Bella Italia,22 PONDVIEW VILLAGE RD,TYNGSBORO,R,1879,22.5,42.68830725,71.4323547,205543.6661,937526.6191,M,19
R485,Bella Roma,239 Broadway,Taunton,R,2780,18,41.9223155,71.090617,233957.9799,852522.3908,M,100
R27,Bella Vista,288 Hanover St,Boston,R,2113,15,42.3639707,71.0543011,236713.9968,901592.5483,M,100
R3040,Bella's Italian Restaurant,933 Hingham St,Rockland,R,2370,60,42.16157,70.9013664,249469.4401,879188.6525,M,100
R2063,Bellingham Palace Pizza,90 Pulaski Blvd,Bellingham,R,2019,37.5,42.01890114,71.4960292,200328.8762,863168.6424,M,100
R2064,Bellino's Trattoria,142 Lowell St,Wakefield,R,1880,37.5,42.523039,71.078208,234657.3322,919251.4651,M,100
G37,Bells Market,246 Dorchester St,Boston,G,2127,7.5,42.33263626,71.0513924,236971.8998,898113.3334,M,100
F56,Bellyache Cove Crafters I,52 Magnolia Ave,Gloucester,F,1930,,42.5834274,70.7151409,264427.0514,926170.2685,M,100
IH229,"BELMONT MANOR NURSING HOME, IN",34 AGASSIZ AVENUE,BELMONT,IH,2178,43.0335,42.38811761,71.1929211,225285.7176,904224.3138,M,100
R393,Belmont Pizza,388 Trapelo Rd,Belmont,R,2478,16.5,42.3859093,71.1848873,225948.1469,903981.4346,M,100
F57,Belmont Springs,36 Country Club Ln,Belmont,F,2478,,42.40884046,71.1988293,224791.0968,906524.4127,M,100
F58,Ben & Bill's Chocolate Emporium,141 Main St,Northampton,F,1060,,42.31868724,72.6309859,106771.7904,897084.7979,M,100
F59,Ben & Bill's Chocolate Emporium Inc,209 Main St,Falmouth,F,2540,,41.5522436,70.6162017,273735.1894,811719.744,M,100
R1534,Ben & Jerry's,174 Newbury St Ste B,Boston,R,2116,30,42.35060308,71.0787214,234709.747,900097.5118,M,100
R28,Ben & Jerry's,36 John F Kennedy St,Cambridge,R,2138,15,42.3725895,71.1201341,231286.8452,902523.6453,T,100
R486,Ben & Jerry's,1265 Worcester St Ste 4,Natick,R,1760,18,42.29913679,71.387594,209268.857,894301.2374,M,100
R3261,Ben & Jerry's Dari Farms,210 Essex St,Whitman,R,2382,75,42.09053233,70.9285623,247274.9396,871283.1265,M,100
R1535,Ben & Jerry's Ice Cream Store,50 BRACKETT ROAD,EASTHAM,R,2651,30,41.8554039,69.986352,325681.6117,846124.2968,M,100
F60,Benders Bagels,286 Union St,Walpole,F,2032,,42.15929085,71.2024738,224587.7837,878804.7873,M,100
IC10,Benjamin Franklin Institute of,41 Berkely Street,Boston,IC,2116,38.2725,42.3458423,71.0703854,235399.2224,899572.1338,M,94
IH230,BENJAMIN HEALTHCARE CENTER,120 FISHER AVENUE,BOSTON,IH,2120,67.3425,42.32796288,71.1054281,232520.9987,897572.2264,M,100
R3795,Benjamin's Restaurant,698 Bay St,Taunton,R,2780,210,41.9293085,71.1005461,233130.738,853295.184,M,100
R885,Ben's Foods,20 Star St,Fall River,R,2724,21,41.6794031,71.1674386,227690.9212,825515.0258,M,100
R1000,Benson's Homemade Ice Cream,181 WASHINGTON ST,BOXFORD,R,1885,22.5,42.70686471,71.066932,235480.1635,939675.9862,M,100
IC11,Bentley College,175 Forest Ave,Waltham,IC,2452,398.246625,42.3906328,71.222512,222848.2228,904495.3439,M,81
F61,Bents Cookie Factory,7 Pleasant St,Milton,F,2186,,42.24548167,71.0691076,235560.8266,888425.225,M,100
W40,Bergie's Seafood Inc,8 Hassey St,New Bedford,W,2740,,41.62477869,70.9160359,248665.3964,819560.629,M,66
IH231,BERKELEY RETIREMENT HOME THE,150 BERKELEY STREET,LAWRENCE,IH,1841,14.454,42.7207411,71.1629384,227608.5556,941181.9609,M,100
IC12,Berklee College of Music,1140 Boylston Street,Boston,IC,2215,286.122375,42.3468919,71.0892388,233845.1978,899681.0654,M,100
F62,Berkshire Brewing Co,12 Railroad St,South Deerfield,F,1373,,42.47786757,72.6104214,108697.0274,914742.4247,M,100
R29,Berkshire Catering and Concessions,201 Hersom St,New Bedford,R,2745,15,41.67916432,70.9245878,247911.9692,825596.1319,M,100
IC64,Berkshire Community College,1350 West Street,Pittsfield,IC,1201,44.6796,42.4576893,73.3152512,50702.65099,913495.4266,M,100
G38,Berkshire Coop Market,37 Rosseter St,Great Barrington,G,1230,27,42.19724275,73.3627522,46164.7606,884657.175,M,100
G39,Berkshire Co Op Market,42 Bridge St,Great Barrington,G,1230,105,42.19310868,73.3608942,46308.16761,884194.7505,M,100
F63,Berkshire Golden Guernsey Ice,19 Filomena Dr,Pittsfield,F,1201,,42.4263,73.2079462,59457.0405,909827.166,M,100
IH232,BERKSHIRE HEALTH CARE CENTER,"7 SANDISFIELD ROAD, BOX 216",SANDISFIELD,IH,1255,18.7245,42.09361075,73.0782402,69445.26603,872674.5594,M,100
IH111,BERKSHIRE MED CTR INC/BERKSHIR,725 NORTH STREET,PITTSFIELD,IH,1201,169.7688,42.45874207,73.248994,56153.66585,913498.4866,M,100
IH112,BERKSHIRE MED CTR INC/HILLCRES,165 TOR COURT ROAD,PITTSFIELD,IH,1201,18.7245,42.45642342,73.2812577,53495.13952,913295.9013,M,100
F64,Berkshire Mountain Bakery Inc,367 Park St,Housatonic,F,1236,,42.2535896,73.3648917,46124.92964,890918.1956,M,63
W41,Berkshire Mountain Spring Water,208 Norfolk Rd,Southfield,W,1259,,42.09894416,73.2330518,56652.7102,873515.4013,M,66
F65,Berkshire Pasta CO,760 Main St,Great Barrington,F,1230,,42.17913594,73.3632182,46082.35178,882647.3179,M,100
IH233,BERKSHIRE PLACE,89 SOUTH STREET,PITTSFIELD,IH,1201,14.454,42.44624007,73.2545368,55669.29707,912119.4309,M,100
IS1,Berkshire School,245 N. Undermountain Road,Sheffield,IS,1257,27.286875,42.11573096,73.4080807,42219.41183,875688.4743,M,100
W42,Berkshire Springs Inc,772 Norfolk Rd,Southfield,W,1259,,42.0818599,73.2238438,57375.88341,871602.785,M,66
F66,Bernadette Baking Co Inc,85 Commercial St,Medford,F,2155,,42.40520212,71.08892,233840.2504,906158.0513,M,100
F67,Bernadette Biscotti,85 Commercial St,Medford,F,2155,,42.40520212,71.08892,233840.2504,906158.0513,M,100
F68,"Bernardino's Bakery, Inc",105 Exchange St,Chicopee,F,1013,,42.1463307,72.6120623,108082.0025,877921.5975,M,100
R811,Bernard's Restaurant,199 Chestnut Hill Rd,Chestnut Hill,R,2467,19.5,42.32980122,71.1613112,227914.2753,897756.6226,M,100
R3162,Bernie's Dining Depot,749 James St,Chicopee,R,1020,61.5,42.19922888,72.5653527,112015.9808,883747.405,M,100
R2895,Bertinis,284 Canal St,Salem,R,1970,52.5,42.50209452,70.8960159,249643.7502,917015.0071,M,100
R2065,Bertucci's Brick Oven Pizzeria,374 Boston Post Rd E,Marlborough,R,1752,37.5,42.3480193,71.5150998,198755.8537,899724.9083,M,100
R2507,Bertucci's Brick Oven Pizzeria,414 Washington St,Holliston,R,1746,45,42.21144008,71.4252644,206171.1406,884556.9772,M,100
R2508,Bertucci's Brick Oven Pizzeria,674 Bliss Rd,Longmeadow,R,1106,45,42.05652919,72.5552026,112658.1251,867888.2656,M,100
R2896,Bertucci's Brick Oven Pizzeria,22 Merchants Row,Boston,R,2109,52.5,42.3591284,71.0554539,236621.8422,901054.1929,M,100
R3041,Bertucci's Brick Oven Pizzeria,27 Enon St,Beverly,R,1915,60,42.5853648,70.8848143,250497.7239,926271.168,M,100
R3042,Bertucci's Brick Oven Pizzeria,601 Donald Lynch Blvd # 2102,Marlborough,R,1752,60,42.3544315,71.6121173,190763.0174,900443.1149,M,100
R3043,Bertucci's Brick Oven Pizzeria,155 Otis St Ste 3,Northborough,R,1532,60,42.28931671,71.6556626,187162.2631,893216.077,M,100
R3044,Bertucci's Brick Oven Pizzeria,847 Riverdale St,West Springfield,R,1089,60,42.126778,72.6263034,106876.2864,875765.4733,M,100
R3223,Bertucci's Brick Oven Pizzeria,450 Paradise Rd,Swampscott,R,1907,72,42.48190709,70.9023107,249142.0817,914768.9903,M,100
R3262,Bertucci's Brick Oven Pizzeria,90 Main St Ste 1,Andover,R,1810,75,42.65412011,71.13889,229609.6686,933789.3817,M,100
R3263,Bertucci's Brick Oven Pizzeria,39 Stanhope St 45,Boston,R,2116,75,42.34830854,71.0732095,235165.1573,899844.9033,M,100
R3264,Bertucci's Brick Oven Pizzeria,21 Brattle St,Cambridge,R,2138,75,42.37331705,71.1204878,231257.3564,902604.329,M,100
R3265,Bertucci's Brick Oven Pizzeria,799 Main St,Cambridge,R,2139,75,42.36325903,71.0972111,233179.731,901495.9184,M,100
R3266,Bertucci's Brick Oven Pizzeria,95 Washington St,Canton,R,2021,75,42.14085818,71.1486273,229046.1116,876774.3724,M,100
R3267,Bertucci's Brick Oven Pizzeria,14 Littleton Rd,Chelmsford,R,1824,75,42.59689676,71.3536834,212008.3481,927380.3719,M,100
R3268,Bertucci's Brick Oven Pizzeria,150 Worcester Rd,Framingham,R,1702,75,42.2985831,71.4008469,208176.114,894238.381,M,100
R3269,Bertucci's Brick Oven Pizzeria,275 Centre St Ste A,Newton,R,2458,75,42.3584025,71.1849181,225956.8972,900926.0714,M,100
R3270,Bertucci's Brick Oven Pizzeria,2 Galleria Mall Dr # 247,Taunton,R,2780,75,41.86708842,71.0500715,237353.5231,846405.4071,M,100
R3271,Bertucci's Brick Oven Pizzeria,17 Commerce Way,Woburn,R,1801,75,42.50657825,71.1310517,230323.2684,917402.879,M,100
R3422,Bertucci's Brick Oven Pizzeria,1 Blackfan Cir,Boston,R,2115,84,42.3377725,71.105133,232540.2735,898661.9421,M,100
R3423,Bertucci's Brick Oven Pizzeria,412 Franklin St,Braintree,R,2184,84,42.21145323,71.0185965,239750.7125,884667.9099,M,100
R3424,Bertucci's Brick Oven Pizzeria,6 PLAZA WAY,PLYMOUTH,R,2360,84,41.95011316,70.7175363,264875.728,855825.9369,M,51
R3425,Bertucci's Brick Oven Pizzeria,45 Walkers Brook Dr,Reading,R,1867,84,42.51901184,71.0937031,233386.2929,918797.9486,M,100
R3426,Bertucci's Brick Oven Pizzeria,160 Turnpike Rd,Westborough,R,1581,84,42.28475344,71.6132949,190655.7224,892703.703,M,100
R3452,Bertucci's Brick Oven Pizzeria,4054 Mystic Valley Pkwy,Medford,R,2155,87,42.40416675,71.0874695,233960.2091,906043.6221,M,100
R3481,Bertucci's Brick Oven Pizzeria,90 Derby St,Hingham,R,2043,90,42.1803821,70.9062654,249050.0609,881275.2821,M,100
R3583,Bertucci's Brick Oven Pizzeria,55 Mazzeo Dr,Randolph,R,2368,97.5,42.16291355,71.0604795,236320.1384,879257.8645,M,100
R3584,Bertucci's Brick Oven Pizzeria,380 Washington St,Wellesley,R,2481,97.5,42.30442256,71.2839763,217811.5454,894904.8045,T,62
R3611,Bertucci's Brick Oven Pizzeria,683 VFW Pkwy,West Roxbury,R,2132,103.5,42.29336169,71.1623238,227846.8352,893708.7809,M,64
R3615,Bertucci's Brick Oven Pizzeria,435 Andover St,North Andover,R,1845,105,42.6737644,71.1257719,230675.723,935976.2001,M,100
R3616,Bertucci's Brick Oven Pizzeria,475 Winter St Ste 11,Waltham,R,2451,105,42.39780654,71.2649696,219350.1002,905281.6799,M,100
R3646,Bertucci's Brick Oven Pizzeria,5 Cambridgepark Dr Ste 1,Cambridge,R,2140,111,42.3946797,71.1407841,229575.7315,904969.9762,M,100
R3650,Bertucci's Brick Oven Pizzeria,51 E Pleasant St,Amherst,R,1002,112.5,42.38055303,72.519363,116054.6315,903840.1601,M,100
R3651,Bertucci's Brick Oven Pizzeria,1405 Boston Prvdnce Tpke,Norwood,R,2062,112.5,42.16465884,71.1989586,224876.1755,879402.0397,M,87
R3652,Bertucci's Brick Oven Pizzeria,15 Newbury St,Peabody,R,1960,112.5,42.5215825,70.99743,241295.4911,919125.6428,M,100
F69,Bess Eaton Donut Flour Co Inc,1218 State St,Springfield,F,1109,,42.11614804,72.5501908,113154.48,874504.5832,M,100
F70,Best Buy Seaford Corp,259 Middlesex St,Lowell,F,1852,,42.6404573,71.3132893,215312.9346,932225.7259,M,100
F71,Best Foods Baking Group,1321 Grafton St,Worcester,F,1604,,42.23562672,71.7498478,179377.2156,887270.9778,M,100
R30,Best Foodstuff Usa,1500 Providence Hwy # 36,Norwood,R,2062,15,42.16187309,71.1998239,224805.7672,879092.3687,M,100
C11,Best Western,291 S Shore Dr,Bass River,C,2664,0,41.64489978,70.2034437,308012.8842,822449.7898,M,100
C12,Best Western,342 Longwood Ave,Boston,C,2115,0,42.3386361,71.1067775,232404.3155,898757.2405,M,100
C13,Best Western,220 Alewife Brook Pkwy,Cambridge,C,2138,0,42.38868021,71.1430812,229389.3862,904302.7796,M,100
C14,Best Western,51 Teaticket Hwy,North Falmouth,C,2556,0,41.56213985,70.5980511,275237.8137,812834.6882,M,100
C15,Best Western,1080 Riverdale St,West Springfield,C,1089,0,42.13339647,72.6258413,106924.1988,876500.0311,M,100
C16,Best Western Royal Plaza and Trade,150 Royal Plaza Drive,Fitchburg,C,1420,16,42.54586902,71.8528464,171018.1717,921761.7147,M,64
C17,Best Wstn Royal Plz Trade Ctr,181 Boston Post Rd W,Marlborough,C,1752,0,42.33902882,71.589433,192630.1132,898730.032,M,100
C18,Best Wstn Yankee Drummer Inn,624 Southbridge St,Auburn,C,1501,0,42.18848819,71.8497531,171109.4634,882064.1659,M,100
IH97,BETH ISR DEACNSS HOSP  NEEDHA,148 CHESTNUT STREET,NEEDHAM,IH,2192,36.2007,42.2774242,71.2373794,221662.7693,891916.7517,M,100
IH13,BETH ISRAEL DEACONESS MED CTR/,330 BROOKLINE AVENUE,BOSTON,IH,2215,132.3198,42.34060284,71.1054534,232512.4121,898976.1997,M,100
IH14,BETH ISRAEL DEACONESS MED CTR/,ONE DEACONESS ROAD,BOSTON,IH,2215,246.53925,42.3385326,71.1092606,232199.7412,898744.8038,M,100
IH234,BETHANY SKILLED NURSING FACILI,97 BETHANY ROAD,FRAMINGHAM,IH,1701,55.5165,42.26857502,71.4308004,205708.8682,890902.7982,M,100
R3182,Betsy's Diner,457 Main St,Falmouth,R,2540,67.5,41.55229689,70.6097276,274275.2454,811731.2798,M,100
R394,Betty Ann's Dairy Freeze & Miniature,225 Main St,Buzzards Bay,R,2532,16.5,41.74902375,70.6051272,274429.8018,833584.0943,M,100
R2066,Betty's Wok & Noodle Diner,250 Huntington Ave,Boston,R,2115,37.5,42.34235759,71.0852677,234174.8486,899179.0001,M,100
R31,Between Rounds,444 N Main St,East Longmeadow,R,1028,15,42.07841489,72.5267046,115046.1235,870290.1672,M,100
R3482,Beverly Depot Rest & Saloon,10 Park St,Beverly,R,1915,90,42.5468329,70.8852245,250494.9028,921990.8123,M,100
IH68,BEVERLY HOSP/ADDISION GILBERT,298 WASHINGTON STREET,GLOUCESTER,IH,1930,49.30785,42.625357,70.6791861,267333.5777,930855.5342,M,100
IH11,BEVERLY HOSP/BEVERLY CAMPUS,85 HERRICK STREET,BEVERLY,IH,1915,139.18545,42.56543381,70.8771764,251140.8423,924061.7848,M,100
G40,Beverly North Food Mart Inc,1 Dodge St Ste A,Beverly,G,1915,22.5,42.57197064,70.8931786,249821.7337,924778.4233,M,100
R2067,Biagio's Grill,257 Park Ave,Worcester,R,1609,37.5,42.2646415,71.8191447,173669.438,890512.8274,M,100
W43,Bianco Meats,375 Revere St,Revere,W,2151,,42.16178241,71.151649,228786.8283,879097.4318,T,66
2068,Bickford's Family Restaurant,20 Nagog Park,Acton,R,1720,37.5,42.52395113,71.432965,205507.9951,919269.2594,M,100
R1536,Bickford's Family Restaurant,669 HIGHLAND AVE,NEEDHAM HEIGHTS,R,2494,30,42.29869811,71.2318412,222112.1686,894281.163,M,52
R1537,Bickford's Family Restaurant,111 Washington St,Quincy,R,2169,30,42.2504223,70.9988259,241357.7673,889005.6822,M,100
R2509,Bickford's Family Restaurant,965 Fall River Ave,Seekonk,R,2771,45,41.79892224,71.3306453,214075.0901,838749.7547,M,100
R2510,Bickford's Family Restaurant,345 Broadway,Somerville,R,2145,45,42.39347954,71.0949051,233353.7463,904853.5912,M,100
R2511,Bickford's Family Restaurant,1296 Riverdale St,West Springfield,R,1089,45,42.14061221,72.6270228,106837.1149,877302.7184,M,100
R1538,Big Dog Sports Grille,151 Central Ave,Lynn,R,1901,30,42.46440161,70.9500139,245232.5112,912798.1392,M,100
R32,Big Easy Cajun,100 Cambridge Side Pl,Cambridge,R,2141,15,42.36700443,71.0760244,234922.9053,901920.3989,M,96
G41,Big ES Supermarket,11 Union St Ste 1,Easthampton,G,1027,150,42.269995,72.672105,103308.1976,891722.5672,M,100
R33,Big Fish Seafood Restaurant,20 Tyler St FL 2,Boston,R,2111,15,42.3506805,71.0607219,236192.6983,900113.5925,M,100
F72,Big G Seafood Inc,57 Hassey St,New Bedford,F,2740,,41.62578171,70.9163619,248637.4625,819671.8436,M,100
R1394,Big N Beefy,415 Broadway,Lawrence,R,1841,25.5,42.71302366,71.1748816,226633.5649,940320.8564,M,100
G42,Big Y,45 Myrtle St,Adams,G,1220,200.1975,42.62065254,73.1186788,67211.41289,931268.9746,M,100
G43,Big Y,University Drive,Amherst,G,1002,305.08875,42.38153922,72.5318003,115031.7868,903962.0103,T,100
G44,Big Y,274 Mohawk Trl,Greenfield,G,1301,285,42.58640821,72.6270338,107490.4715,926816.1516,M,100
G45,Big Y,Bliss Rd,Longmeadow,G,1106,304.5,42.05595854,72.5561171,112581.653,867825.8241,M,81
G46,Big Y,Thorndike St,Palmer,G,1069,315,42.16897,72.32629,131726.1301,880167.6906,T,100
G47,Big Y,200 West St,Pittsfield,G,1201,375,42.44819639,73.2577762,55407.33323,912342.1766,M,100
G48,Big Y,2145 Roosevelt Ave,Springfield,G,1104,450,42.13841498,72.5477057,113390.3534,876975.1015,M,100
G49,Big Y,150 West St,Ware,G,1082,187.5,42.25518562,72.252758,137886.2065,889687.3473,M,100
G50,Big Y,2611 Westfield St,West Springfield,G,1089,127.5,42.10715385,72.6892918,101638.2921,873656.6888,M,100
G51,Big Y,10 E Silver St,Westfield,G,1085,45,42.1140824,72.7465275,96916.12667,874493.7626,M,100
G52,Big Y,45 Veterans Memorial Dr,North Adams,G,1247,328.5,42.70027044,73.1109806,68009.89736,940099.857,M,100
G53,Big Y,1180 Thorndike St,Palmer,G,1069,315,42.17267725,72.3251295,131826.0015,880578.5171,M,100
G54,Big Y,160 Reservoir St Ste 1,Holden,G,1520,300,42.34496021,71.864765,169943.7777,899449.2728,M,100
G55,Big Y,237 Mohawk Trl,Greenfield,G,1301,300,42.58605611,72.6255409,107612.4929,926775.4241,M,100
G56,Big Y,425 Center St,Ludlow,G,1056,300,42.16762856,72.481647,118888.2505,880154.746,M,100
G57,Big Y,503 Memorial Ave Ste 1,West Springfield,G,1089,300,42.09599993,72.6052463,108572.9101,872324.4147,M,100
G58,Big Y,505 E Main St,Southbridge,G,1550,300,42.06923067,72.0107078,157735.0079,868885.2977,M,100
G59,Big Y,740 S Main St,Great Barrington,G,1230,300,42.17930557,73.3633515,46071.7552,882666.3948,M,82
G60,Big Y,802 Williams St,Longmeadow,G,1106,300,42.05580943,72.5544218,112721.7674,867807.5278,M,100
G61,Big Y,100 May St,Worcester,G,1602,253.5,42.25774427,71.8259572,173104.4543,889748.8523,M,100
G62,Big Y,1090 Saint James Ave,Springfield,G,1104,253.5,42.13812467,72.570426,111511.8469,876966.1785,M,100
G63,Big Y,175 University Dr,Amherst,G,1002,253.5,42.36918978,72.5333906,114884.2148,902591.9559,M,100
G64,Big Y,50 SW Cutoff Ste 2,Worcester,G,1604,253.5,42.2391645,71.7458737,179706.3794,887662.9776,M,100
G65,Big Y,62 W Main St Ste C,Spencer,G,1562,253.5,42.2351507,72.0115435,157776.3689,887314.5135,M,100
G66,Big Y,650 Memorial Dr Ste 3,Chicopee,G,1020,253.5,42.17619337,72.5764901,111063.9362,881200.5344,M,100
G67,Big Y,800 Boston Rd,Springfield,G,1119,253.5,42.1369405,72.5184969,115802.8534,876782.0942,M,100
G68,Big Y,999 Providence Hwy,Walpole,G,2081,253.5,42.14015296,71.2188575,223240.8347,876674.5176,M,100
G69,Big Y,2189 Westover Rd,Chicopee,G,1022,249,42.18912266,72.5534933,112981.4986,882612.7968,M,100
G70,Big Y,136 N King St,Northampton,G,1060,240,42.34164625,72.6409162,105987.3835,899645.667,M,100
G71,Big Y,10 College Hwy Ste 2,Southampton,G,1073,225,42.2525516,72.6984089,101111.2007,889815.3951,M,100
G72,Big Y,195 College Hwy,Southwick,G,1077,225,42.02494306,72.7865376,93458.33863,864643.2234,M,100
G73,Big Y,148 West St,Ware,G,1082,150,42.25527972,72.2525866,137900.4417,889697.6746,M,100
G74,Big Y,300 Cooley St Ste 1,Springfield,G,1128,112.5,42.09516,72.4983877,117410.8478,872122.1258,M,100
G75,Big Y,475 E Main St,Westfield,G,1085,112.5,42.11255489,72.7180803,99266.03774,874290.1291,M,100
G76,Big Y,501 Newton St Ste 2,South Hadley,G,1075,112.5,42.23690085,72.5827018,110636.3649,887949.4711,M,100
G77,Big Y,44 Willimansett St,South Hadley,G,1075,52.5,42.22266448,72.5721047,111491.1072,886357.2593,M,100
G78,Big Y,1 E Silver St,Westfield,G,1085,45,42.1140509,72.7471126,96867.69315,874490.9716,M,100
G79,Big Y,1 Myrtle St,Adams,G,1220,30,42.62011661,73.1200268,67099.71712,931211.551,M,100
R395,Bill & Bob's,57 Main St,Woburn,R,1801,16.5,42.46762334,71.1475392,228986.0759,913070.0666,M,100
R2069,Billy Tse,240 Commercial St Lbby 1,Boston,R,2109,37.5,42.36393322,71.0510575,236981.2054,901589.7868,M,100
R2512,Billy Tse,441 Revere St,Revere,R,2151,45,42.41860248,70.994092,241637.6166,907688.4731,M,100
IH235,BIRCH MANOR REHAB & SKLD NURS,44 NEW LOMBARD ROAD,CHICOPEE,IH,1020,22.338,42.16709823,72.5423024,113875.9307,880155.3071,M,100
G80,Biscones,293 Watertown St,Newton,G,2458,15,42.3611464,71.1985698,224831.1783,901226.7885,M,100
R487,Bishop's Terrace,108 Route 28,West Harwich,R,2671,18,41.66927878,70.1126679,315530.5047,825276.1259,M,100
R2070,Bison County,275 Moody St,Waltham,R,2453,37.5,42.37136973,71.2369117,221669.1641,902351.9073,M,100
R1539,Bistro 63 At Monkey Bar Grill,30 Boltwood Walk,Amherst,R,1002,30,42.37622618,72.5188405,116091.916,903359.0662,M,100
R488,Bistro The,72 E Main St Ste C,Westborough,R,1581,18,42.27558,71.60944,190972.3548,891684.3499,M,100
R1001,Bistro Zinc,56 Church St,Lenox,R,1240,22.5,42.3578603,73.2828324,53136.82507,902352.8051,M,100
R489,Bittersweet Farm Restaurant,438 Main Rd,Westport,R,2790,18,41.59913919,71.0865504,234469.2865,816629.8598,M,100
F73,Bittersweet Herb Farm,635 Mohawk Trl,Shelburne,F,1370,,42.58490143,72.7013741,101386.4863,926732.076,M,80
G81,Bjs Wholesale Club 113,105 Shops & 5th Way,Plymouth,G,2345,255,41.92883176,70.653405,270216.2863,853513.1187,M,100
R3045,Black & White Drive In,206 N Spencer Rd,Spencer,R,1562,60,42.30294649,71.9898099,159613.5191,894834.2534,M,100
R3046,Black Cow Tap & Grill,16 Bay Rd,South Hamilton,R,1982,60,42.6099948,70.8752797,251260.3249,929012.7729,M,100
R2513,Black Rhino,21 Broad St,Boston,R,2109,45,42.3586475,71.0542836,236718.5281,901001.28,M,100
R1540,Black Sheep Deli,79 Main St,Amherst,R,1002,30,42.3757912,72.5182565,116139.4338,903310.1789,M,100
R490,Black Eyed Susan's,10 India St,Nantucket,R,2554,18,41.28392715,70.1001025,317279.2193,782498.6747,M,100
W44,Blacksea Hazelnut L.L.C.,618 Shawmut Ave Ste 1,Boston,W,2118,,42.3360377,71.0799563,234615.9727,898479.1611,T,66
IH236,BLACKSTONE NURSING HOME,8 BUTLER STREET,BLACKSTONE,IH,1504,10.8405,42.01640643,71.5463061,196164.6088,862892.5879,M,100
R3585,Blades & Boards,150 Causeway St,Boston,R,2114,97.5,42.36600203,71.0603359,236215.725,901815.5998,M,100
IH237,BLAIRE HOUSE LTCF OF MILFORD,20 CLAFLIN STREET,MILFORD,IH,1757,23.9805,42.1376441,71.5172749,198571.8998,876357.6955,M,100
IH238,BLAIRE HOUSE LTCF OF TEWKSBURY,10 ERLIN TERRACE,TEWKSBURY,IH,1876,43.0335,42.61284547,71.2422858,221145.4803,929173.6613,M,100
IH239,BLAIRE HOUSE LTCF OF WORCESTER,116 HOUGHTON STREET,WORCESTER,IH,1604,24.6375,42.2493102,71.7848267,176495.0963,888799.898,M,100
R491,Blanchard Food,322 Cambridge St,Worcester,R,1603,18,42.2435897,71.8168258,173852.0691,888173.8157,M,100
R1541,Bleu,7 N MarketSt,Mashpee,R,2649,30,41.6183553,70.4903131,284150.6787,819178.6784,M,100
F74,Bliss Bros Dairy Inc,745 Park St,Attleboro,F,2703,,41.93697339,71.2647134,219512.3885,854095.8512,M,100
W45,"Bliss Bros Dairy, Inc.",711 Park St,Attleboro,W,2703,,41.93773811,71.2655163,219445.5708,854180.6049,T,66
R3183,Block Five Bistro,139 Green St,Worcester,R,1604,67.5,42.2564768,71.7979632,175413.811,889599.6217,M,100
F75,Blood Farm,94 W Main St,Groton,F,1472,,42.60130922,71.6212887,190046.4153,927867.3015,M,100
W46,Bloomsberry & Co,92 Jackson St,Salem,W,1970,,41.94199483,71.2934738,217125.9338,854647.4006,T,66
F76,Blount Fine Foods,630 Currant Rd,Fall River,F,2720,,41.74148875,71.1113784,232327.3602,832430.4023,M,100
R34,Blue Anchor,453 Main St,Hyannis,R,2601,15,41.65176664,70.2861019,301116.4604,823111.0631,M,100
R2897,Blue Coral Seaside Cuisine & Spirits,483 Main St,Chatham,R,2633,52.5,41.67965965,69.9566506,328500.6909,826652.1176,M,100
R1996,Blue Eagle Cafe & Restaurant,930 Worthington St 932,Springfield,R,1105,34.5,42.11276355,72.5796259,110715.7079,874159.0831,M,100
R1542,Blue Fin,260 S Main St,Middleton,R,1949,30,42.57558252,70.9955909,241411.1352,925124.8631,M,100
IH240,BLUE HILLS ALZHEIMER'S CARE CE,1044 PARK STREET,STOUGHTON,IH,2072,30.222,42.10903787,71.070819,235495.8413,873269.5061,M,100
R2071,Blue Jeans Pizza,270 Park Ave,Worcester,R,1609,37.5,42.2637485,71.8196053,173631.0655,890413.7809,M,100
R396,Blue Point Restuant,6 Dayton St,Acushnet,R,2743,16.5,41.68408946,70.9097848,249140.7488,826151.565,M,64
R1543,Blue Ribbon Barbecue,45 KENNETH ST,NEWTON HIGHLANDS,R,2461,30,42.31265055,71.2114738,223786.3994,895836.4082,M,51
R492,Blue Shirt Cafe,424 Highland Ave,Somerville,R,2144,18,42.39586418,71.1208487,231216.4982,905108.6489,M,100
R493,Blue Star Family Restaurant,154 Williams St,Longmeadow,R,1106,18,42.04995806,72.576398,110894.6102,867180.3848,M,100
R1544,Blue Water Cafe,140 High St,Newburyport,R,1950,30,42.80827787,70.8736932,251228.7618,951039.9159,M,100
R2345,Bluebonnet Diner,324 King St,Northampton,R,1060,39,42.33445307,72.635897,106390.3128,898841.2261,M,100
R35,Bluestone Bistro,1799 COMMONWEALTH AVE,BRIGHTON,R,2135,15,42.3404574,71.1513342,228731.72,898943.5738,M,100
F77,BMK Intl Inc,15 Lathrup Rd,Wellesley,F,2482,,42.28887813,71.2831699,217882.4285,893178.3767,M,86
W47,Boars Head Brand Provisions,323 Turnpike St,Canton,W,2021,,42.17423,71.11191,232064.449,880494.1805,T,66
R1545,Boat House Grill,400 SOLDIERS FIELD RD,ALLSTON,R,2134,30,42.35982609,71.1176135,231500.8029,901106.8664,M,100
W48,Bob Lobster,49 Plum Island Tpke,Newbury,W,1951,,42.79642245,70.8341862,254470.4556,949747.4017,T,66
R3483,Bobby Hackett's Restaurant,615 Washington St,Pembroke,R,2359,90,42.07446605,70.7810844,259490.5436,869590.9751,M,100
R2019,Bob's Country Kitchen,42 S Main St,Lanesboro,R,1237,36,42.51517238,73.2280138,58005.9324,919730.3207,M,100
R2020,Bob's Famous Fried Clams,5 Agawam Ln,Andover,R,1810,36,42.60441664,71.1028892,232587.285,928281.2676,M,100
R2482,Bob's Famous Fried Clams,429 Highland Ave,Salem,R,1970,43.5,42.49486303,70.9334122,246575.3898,916190.6547,M,100
G82,Bobs Food Store Inc,324 Main St,Medford,G,2155,40.5,42.40738471,71.1088622,232197.5004,906392.767,M,100
F78,Bob's Pita Bakery,748 South St,Boston,F,2131,,42.28699653,71.1291154,230588.4602,893013.1516,M,100
R2898,Boca,254 Church St Ste 7,Pembroke,R,2359,52.5,42.10784578,70.7628228,260969.6136,873311.2658,M,100
R494,Boca Grande Restaurant,1294 Beacon St,Brookline,R,2446,18,42.34253369,71.1203572,231283.3331,899185.0961,M,100
495,Boloco,125 Pearl Street,Boston,R,2210,18,42.35508429,71.0538788,236753.9459,900605.6704,M,100
R1546,Boloco,137 Massachusetts Ave,Boston,R,2115,30,42.34708804,71.0876171,233978.7102,899703.4965,M,100
R36,Boloco,125 Pearl St,Boston,R,2110,15,42.35508429,71.0538788,236753.9459,900605.6704,M,100
R37,Boloco,133 Federal St,Boston,R,2110,15,42.35413853,71.0562975,236555.2306,900499.5807,M,100
R38,Boloco,247 Newbury Street,Boston,R,2216,15,42.34954802,71.08266,234385.818,899978.7261,M,100
R39,Boloco,359 Huntington Ave,Boston,R,2115,15,42.34017397,71.0896496,233814.9392,898934.7075,M,100
R40,Boloco,50 Congress Street Brg L1,Boston,R,2210,15,42.35189951,71.0512404,236973.1731,900253.061,M,64
R41,Boloco,1940 Beacon St,Brighton,R,2135,15,42.3361175,71.1500657,228838.23,898461.9464,M,100
G83,Bolton Country Cupboard Inc,476 Main St,Bolton,G,1740,15,42.43062941,71.5915679,192465.102,908904.9691,M,100
IH241,BOLTON MANOR NURSING & REHAB C,400 BOLTON STREET,MARLBOROUGH,IH,1752,47.304,42.35986854,71.552111,195707.1133,901042.284,M,100
R3617,Bombolotti,343 Commercial St Ste 101,Boston,R,2109,105,42.36566686,71.051134,236973.8872,901782.3176,M,100
R42,Bon Appetit Caterers,687 Belmont St,Belmont,R,2478,15,42.3802309,71.1813389,226242.7005,903351.7831,M,100
R3015,Bonatt's Restaurant,537 ROUTE 28,HARWICH PORT,R,2646,57,41.67092365,70.0589809,319997.807,825532.9158,M,51
R3184,Boodles Restaurant,40 Dalton St,Boston,R,2115,67.5,42.3460798,71.0846514,234223.6188,899592.6918,M,100
R2899,Books & Beans,15 Hamilton St,Southbridge,R,1550,52.5,42.07627126,72.034844,155742.4801,869679.5304,M,100
R2072,Bookstore & Restaurant,50 Kendrick Ave,Wellfleet,R,2667,37.5,41.93043917,70.0317785,321766.679,854391.2142,M,100
R3404,Bootlegger The,50 Massachusetts Ave,Lunenburg,R,1462,82.5,42.5871181,71.7693293,177892.475,926318.7285,M,100
R3618,Border Cafe,32 Church St,Cambridge,R,2138,105,42.37441,71.1203501,231268.1519,902725.78,M,100
R3690,Border Cafe,356 Broadway,Saugus,R,1906,120,42.48057166,71.0211002,239376.1419,914559.0154,M,100
R2843,Border Grille & Bar,246 Mill St,Leominster,R,1453,48,42.53304,71.7449162,179879.1342,920305.5867,M,100
G84,Borrowed Butler Inc,28 Driftway,Scituate,G,2066,21,42.176325,70.71704,264686.2463,880950.8225,M,100
R1002,Bossy's Catering Services,123 Holliston St,Medway,R,2053,22.5,42.16130435,71.4096714,207464.5959,878989.5017,M,100
IC65,Boston Architectural Center,320 Newbury Street,Boston,IC,2115,10.3005,42.3487293,71.0857247,234133.753,899886.5555,M,100
F79,Boston Bagel Inc,500 Commander Shea Blvd,Quincy,F,2171,,42.2955945,71.031006,238674.6505,894007.9948,M,100
F80,Boston Baking Inc.,101 Sprague St Ste 3,Boston,F,2136,,42.23428017,71.1385712,229833.4222,887154.4142,M,100
R496,Boston Beanstock Coffee Co,97 Salem St,Boston,R,2113,18,42.3638801,71.0556557,236602.4663,901581.9028,M,100
F81,Boston Beer Company Inc,75 Arlington St,Boston,F,2116,,42.35062226,71.0701778,235413.6487,900103.1544,M,100
R2073,Boston Beer Garden,732 E Broadway,Boston,R,2127,37.5,42.33562907,71.0360897,238231.2468,898452.5044,M,100
F82,Boston Brands,200 Unicorn Park Dr,Woburn,F,1801,,42.48220405,71.1142358,231717.5766,914701.5253,M,100
F83,Boston Brisket Co,42 Newmarket Sq,Boston,F,2118,,42.32899917,71.0661353,235758.9307,897703.0591,M,100
F84,"Boston Brisket Company, Inc.",42 Newmarket Sq,Boston,F,2118,,42.32899917,71.0661353,235758.9307,897703.0591,M,100
F85,Boston Cheese Cellar LLC,18 Birch St,Roslindale,F,2131,,42.2866718,71.1302244,230497.1529,892976.6847,M,100
F86,Boston Chipyard,257 Faneuil Hall Pl,Boston,F,2109,,42.3601743,71.0557685,236595.3184,901170.2315,M,40
G85,Boston Common Foods Inc,447 Centre St,Newton,G,2458,150,42.3550881,71.1862982,225844.557,900557.5022,M,100
C19,Boston Convention Complex,2 Copley Place,Boston,C,2116,298.5,42.3481043,71.0775877,234804.5304,899820.4216,M,100
F87,Boston Daily Bread,1331 Beacon St,Brookline,F,2446,,42.34190871,71.1216539,231176.7909,899115.2012,M,100
R2407,Boston Fish Market,160 American Legion Dr,North Adams,R,1247,42,42.6961964,73.111229,67981.00076,939647.7491,M,100
F88,Boston Fruit Slice & Confectionery Corp,250 Canal St Ste 3,Lawrence,F,1840,,42.7064706,71.1565613,228137.2811,939598.781,M,100
C20,Boston Harbor Hotel,70 Rowes Wharf,Boston,C,2110,38.3,42.35651175,71.0505008,237031.4065,900765.6865,M,95
IH242,BOSTON HOME INC THE,2049 2061 DORCHESTER AVENUE,BOSTON,IH,2124,31.536,42.2806768,71.0657077,235821.5061,892335.8791,M,100
F89,"Boston Lamb & Veal Co., Inc.",155 S Hampton,Boston,F,2118,,42.33154192,71.0673011,235661.4153,897985.0066,M,81
R1003,Boston Market,168 Broadway,Saugus,R,1906,22.5,42.49099604,71.0164859,239748.9722,915719.0791,M,100
R1342,Boston Market,159 Centre St,Malden,R,2148,24,42.42555513,71.0728133,235154.8282,908425.3139,M,100
R1395,Boston Market,SPEEN ST,FRAMINGHAM,R,1701,25.5,42.30808116,71.3834766,209607.0178,895295.1926,M,100
R1396,Boston Market,4 WEST ST,LUDLOW,R,1056,25.5,42.16074958,72.5105519,116490.9495,879418.6251,M,100
R1430,Boston Market,111 Lenox St Ste 111,Norwood,R,2062,27,42.19246877,71.1972501,225006.395,882491.4471,M,100
R1547,Boston Market,756 Belmont St,Brockton,R,2301,30,42.0688655,71.0484537,237369.1866,868817.1214,M,100
R1548,Boston Market,14 Maple St,East Longmeadow,R,1028,30,42.06427492,72.514245,116058.3665,868707.4028,M,100
R1549,Boston Market,152 Whalon St,Fitchburg,R,1420,30,42.55354978,71.7842338,176656.6374,922593.8584,M,100
R1550,Boston Market,65 Main St,Stoneham,R,2180,30,42.49792278,71.1008157,232812.8015,916452.6236,M,100
R1938,Boston Market,435 Winthrop Ave,Lawrence,R,1843,33,42.67973956,71.133874,230008.7423,936637.0702,M,63
R1997,Boston Market,1010 WILLIAM T MORRISSEY BLVD,BOSTON,R,2122,34.5,42.29045564,71.0448247,237538.1705,893431.0298,M,100
R2346,Boston Market,1387 Boston Rd,Springfield,R,1119,39,42.14092041,72.4980221,117500.5569,877204.113,M,100
R2408,Boston Market,341 Cochituate Rd Ste 4,Framingham,R,1701,42,42.30296669,71.4017045,208104.8369,894725.2074,M,100
R2514,Boston Market,40 Drum Hill Rd,Chelmsford,R,1824,45,42.62513775,71.3614399,211366.6683,930516.4296,M,100
R43,Boston Market,126 Granite St,Quincy,R,2169,15,42.24596034,71.0060923,240761.0061,888506.5838,M,100
R44,Boston Market,1099 Lexington St,Waltham,R,2452,15,42.41169644,71.2335202,221934.5041,906832.1455,M,100
R45,Boston Market,132 Turnpike Road,Westborough,R,1581,15,42.28497072,71.6084547,191054.9554,892727.3183,M,100
R46,Boston Market,174 Littleton Rd Ste 7,Westford,R,1886,15,42.56756353,71.4225319,206360.8423,924114.5341,M,100
R47,Boston Market,14 Park Ave,Worcester,R,1605,15,42.28303708,71.8085741,174548.9365,892552.8892,M,100
R497,Boston Market,185 Boston Post Rd W,Marlborough,R,1752,18,42.33899283,71.5895938,192616.8522,898726.0488,M,100
R812,Boston Market,421 New State Hwy,Raynham,R,2767,19.5,41.90608398,71.0500303,237334.0975,850736.5555,M,100
W50,Boston Market Terminal Co,34 Market St Ste 11,Everett,W,2149,,42.85881168,70.9297154,246608.9634,956621.5672,T,66
C21,Boston Marriot Burlington,1 Mall Rd,Burlington,C,1803,32.9,42.48561633,71.2139962,223514.0293,915048.26,M,100
C22,Boston Marriot Copley Hotel,110 Huntington Avenue,Boston,C,2116,268.3,42.3469926,71.0797419,234627.6458,899696.0626,M,100
C23,Boston Marriot Hotel Cambridge,2 Cambridge Center,Cambridge,C,2142,93.1,42.36241608,71.0858236,234118.2236,901406.7793,M,100
C24,Boston Marriot Long Wharf Hotel,296 State Street,Boston,C,2109,87.6,42.35975388,71.0509928,236988.9742,901125.5931,M,100
C25,Boston Marriot Newton Hotel,2345 Commonwealth Ave,Newton,C,2466,28.7,42.34569,71.25741,219988.9453,899494.4934,M,100
C26,Boston Marriot Quincy,1000 Marriot Drive,Quincy,C,2169,36.5,42.23099782,71.0167052,239894.5778,886839.6469,M,100
IH15,BOSTON MED CTR CORP MENINO PAV,830 840 HARRISON AVENUE,BOSTON,IH,2118,187.86915,42.33575672,71.074103,235098.4989,898450.343,M,100
IH16,BOSTON MED CTR CORP NEWTON PAV,88 EAST NEWTON STREET,BOSTON,IH,2118,146.0511,42.33707127,71.0714544,235316.0329,898597.449,M,100
G86,Boston Organics LLC,50 Terminal St Ste 2,Charlestown,G,2129,22.5,42.38131643,71.0535251,236767.8341,903519.5694,M,100
R3396,Boston Palm Restaurant,200 Dartmouth St,Boston,R,2116,78,42.34914,71.076935,234857.7385,899935.7286,M,100
C27,Boston Park Plaza Hotel,64 Arlington Street,Boston,C,2116,164.3,42.3510039,71.0703577,235398.6168,900145.4704,M,100
R1551,Boston Pizza,315 Middlesex Rd Unit 5,Tyngsboro,R,1879,30,42.68435794,71.4292793,205796.062,937088.1079,M,100
F90,Boston Pretzel Bakery Inc,284 Amory St,Boston,F,2130,,42.31825016,71.1012147,232873.3099,896495.0052,M,61
R1397,Boston Sail Loft Cafe & Bar,80 Atlantic Ave,Boston,R,2110,25.5,42.3637376,71.0510388,236982.8574,901568.0659,M,100
F91,"Boston Salads and Provisions, Inc.",24 Chesterton St,Roxbury,F,2119,,42.33030795,71.0704764,235400.4158,897846.6211,M,100
W51,"Boston Sausage & Provision, Inc.",7 Wells Ave,Newton,W,2459,,42.84810647,70.931409,246478.4742,955431.3947,T,66
W52,"Boston Seafarms, Inc.",119 Marlborough St APT 5,Boston,W,2116,,42.35331776,71.0770032,234849.8215,900399.7459,T,66
R1905,Boston Snack Foods,3 Oakland St,Woburn,R,1801,31.5,42.51539116,71.1505739,228714.7676,918375.0598,M,100
IC13,Boston University,985 Commonwealth Avenue,Boston,IC,2215,2007.03825,42.35171686,71.1200786,231301.7403,900205.2225,M,100
C28,"Boston University, Office of the",775 Commonwealth Avenue B 4,Boston,C,2215,93.1,42.350403,71.1090683,232209.5449,900063.3836,M,100
W53,"Bostonia Produce, Inc.",7 New England Produce Ctr,Chelsea,W,2150,,42.39529006,71.0527082,236826.9629,905072.0561,M,59
IH243,BOSTONIAN NURSING CARE & REHAB,337 NEPONSET AVENUE,BOSTON,IH,2122,39.7485,42.28756862,71.0463812,237411.516,893109.6745,M,100
R1004,Boston's Catch Seafood & Grill,120 Washington St,Somerville,R,2143,22.5,42.38107246,71.0872438,233991.2023,903478.4839,M,100
R48,Boulevard Restaurant,664 Page Blvd Ste 666,Springfield,R,1104,15,42.14151335,72.5568613,112637.8003,877328.5547,M,100
R498,Bounti Fare Restaurant,200 Howland Ave,Adams,R,1220,18,42.65528118,73.1099333,68001.36766,935101.4331,M,100
R499,Bourbon Street Cafe,250 Granite St Ste 33,Braintree,R,2184,18,42.22054,71.02812,238958.7543,885672.7993,M,100
IH244,BOURNE MANOR EXTENDED CARE FAC,146 MACARTHUR BOULEVARD,BOURNE,IH,2532,46.647,41.73371304,70.5843899,276172.792,831901.9694,M,100
IH44,BOURNEWOOD HOSPITAL,300 SOUTH STREET,BROOKLINE,IH,2167,0,42.2979746,71.1510316,228775.9614,894224.9046,M,100
W54,Bova Bakery,134 Salem St,Boston,W,2113,,42.64000821,71.1191042,231239.0237,932228.8288,T,66
G87,Bovardis Market Inc,121 Eastern Ave,Lynn,G,1902,22.5,42.47130694,70.9251636,247271.0711,913578.6388,M,100
R3272,Bowser's Seafood Restaurant,435 Randolph St,Abington,R,2351,75,42.13058446,70.9660411,244146.5182,875711.6025,M,100
R3047,Box Seats Restaurant,500 E Washington St # 13,North Attleboro,R,2760,60,41.98133835,71.3296416,214118.0408,859010.6334,M,100
G88,Boxford Community Store Inc,7 Elm St,Boxford,G,1921,33,42.66253578,70.9977916,241173.5894,934782.7758,M,100
F92,"Boyajian, Inc.",144 Will Dr,Canton,F,2021,,42.14262337,71.124546,231035.9055,876978.9153,M,100
R500,Boynton Pizza,119 Highland St,Worcester,R,1609,18,42.27102307,71.8074501,174636.8316,891218.1092,M,100
R501,Braccia's Four 66 Pub,466 Newbury St,Danvers,R,1923,18,42.6011589,70.9593556,244367.9417,927984.1391,M,100
R2074,Bradford Country Tavern,277 Salem St,Haverhill,R,1835,37.5,42.76007547,71.0648832,235617.8586,945587.8614,M,100
F93,"Brady Enterprises, Inc.",45 Finnell Dr,Weymouth,F,2188,,42.1880928,70.9679485,243948.9794,882098.0871,M,100
IH245,BRAEMOOR REHAB & NURSING CENTE,34 NORTH PEARL STREET,BROCKTON,IH,2301,39.42,42.09029376,71.06432,236043.977,871190.3227,M,100
IH39,BRAINTREE REHABILITATION HOSPI,250 POND STREET,BRAINTREE,IH,2184,103.6089,42.19876853,71.0190591,239720.4545,883258.7844,M,100
IH94,BRAINTREE UNIT @ METROWEST MED,67 UNION STREET,NATICK,IH,1760,13.10715,42.28118696,71.3337289,213714.3957,892314.7177,M,100
W55,"Bramante Seafood, Inc.",24 Boston Fish Pier,Boston,W,2210,,42.3497579,71.0390427,237979.4084,900020.5411,M,100
F94,Brandano Baking Co,40 S Ferry St,Everett,F,2149,,42.40325772,71.0491463,237115.55,905958.6179,M,100
IC14,Brandeis University,415 South Street,Waltham,IC,2453,336.868875,42.36589768,71.2549612,220184.2711,901739.6629,M,100
R3484,Brandi Holten Foods,10 Garden St,Danvers,R,1923,90,42.55963098,70.9633279,244070.9818,923369.1229,M,100
IH246,BRANDON WOODS OF DARTMOUTH,567 DARTMOUTH STREET,DARTMOUTH,IH,2748,38.763,41.61163766,70.9390482,246757.26,818088.2461,M,100
IH247,BRANDON WOODS OF NEW BEDFORD,397 COUNTY STREET,NEW BEDFORD,IH,2740,44.3475,41.6306005,70.9289146,247587.8166,820199.9619,M,100
G89,Brant Rock Market,22 Dyke Rd,Brant Rock,G,2020,60,42.09158111,70.6464746,270610.1916,871594.5447,M,100
R2021,Brasseier 40 A,41 Strong Ave,Northampton,R,1060,36,42.31965418,72.6280213,107017.5762,897188.9555,M,100
R3273,Brasserie Jo,120 Huntington Ave,Boston,R,2116,75,42.3457595,71.0813535,234495.5294,899558.443,M,100
R3274,Brax Land Restaurant,705 Main St,Harwich Port,R,2646,75,41.66977531,70.0613194,319805.2454,825402.104,M,100
R502,Brazil On Grill,696 Crescent St,Brockton,R,2302,18,42.08108702,70.9913074,242090.3728,870201.1748,M,100
R813,Bread & Pasta Restaurant,421 Shrewsbury St,Worcester,R,1604,19.5,42.2718,71.77379,177413.8989,891294.9452,M,100
R1005,Bread of Life Kitchen,4 Church St Ste 2,Webster,R,1570,22.5,42.04955339,71.8813552,168430.0708,866643.7695,M,100
R1006,Breaking Grounds,19 Captains Row,Mashpee,R,2649,22.5,41.60232783,70.4668066,286131.256,817422.136,M,100
R503,Brew City Grill House,104 Shrewsbury St,Worcester,R,1604,18,42.26355382,71.7902048,176056.659,890383.4865,M,100
R1343,Brewed Awakenings,19 Main St,Hingham,R,2043,24,42.24192449,70.8889533,250431.2664,888120.9335,M,100
R3734,Brewhouse Cafe & Grill,201 Cabot St,Lowell,R,1854,150,42.6510207,71.3164917,215047.768,933398.5909,M,100
R504,Brewster Fish House,2208 Main St,Brewster,R,2631,18,41.76374729,70.0737955,318591.8861,835820.4575,M,100
F95,Breyers Ice Cream,490 Old Connecticut Path,Framingham,F,1701,,42.31250402,71.3920606,208898.6738,895785.532,M,100
R3485,Brians An Eating & Drinking Place,91 PROVIDENCE RD,UXBRIDGE,R,1588,90,42.02070198,71.5959584,192052.5993,863373.1251,M,81
IH151,BRIARWOOD HEALTHCARE & NURSING,150 LINCOLN STREET,NEEDHAM,IH,2492,39.42,42.27505606,71.2363787,221746.1246,891653.9674,M,100
R49,Brick House & Bar and Grill,1620 N Main St,Palmer,R,1069,15,42.16301393,72.3428601,130350.4966,879519.5627,M,100
R3165,Bridge Cafe,840 Memorial Dr,Chicopee,R,1020,63,42.1817665,72.57734,111001.5464,881820.3945,M,100
R2515,Bridgeman's Restaurant,145 Nantasket Ave,Hull,R,2045,45,42.26791696,70.8523301,253431.8992,891030.2495,M,100
IH152,BRIDGEWATER NURSING HOME,16 PLEASANT STREET,BRIDGEWATER,IH,2324,14.1255,41.98656696,70.979438,243136.531,859708.9073,M,100
IC15,Bridgewater State College,131 Summer St,Bridgewater,IC,2324,683.872875,41.98735622,70.972904,243677.4242,859799.8942,M,100
IP2,Bridgewater State Hospital,20 Administration Road,Bridgewater,IP,2324,71.54,41.945324,70.950168,245591.5036,855143.4048,M,64
R3570,Briggs Corner Pizzeria,1123 Oakhill Ave,Attleboro,R,2703,91.5,41.91139903,71.258179,220062.336,851256.8562,M,100
IH17,BRIGHAM & WOMEN'S HOSPITAL,75 FRANCIS STREET,BOSTON,IH,2115,476.22645,42.33583469,71.1074615,232349.3765,898445.8147,M,100
IH153,BRIGHAM MANOR NURSING & REHAB,77 HIGH STREET,NEWBURYPORT,IH,1950,21.024,42.80586,70.8695,251573.7239,950773.8462,M,100
F96,Brighams Inc,30 Mill St,Arlington,F,2476,,42.41731672,71.1577991,228164.7313,907478.6701,M,100
R2075,Brigham's Restaurant,2 Trapelo Rd,Belmont,R,2478,37.5,42.3784501,71.1708515,227107.125,903157.2579,M,100
R397,Brigham's Restaurant,350 Winthrop Ave,North Andover,R,1845,16.5,42.6795958,71.1337152,230021.8278,936621.1565,M,62
IH154,BRIGHTEN AT MEDFORD,300 WINTHROP STREET,MEDFORD,IH,2155,46.647,42.42102681,71.1179786,231440.2822,907904.6898,M,100
R2409,Brighton Beer Garden,386 Market St,Brighton,R,2135,42,42.35022105,71.1528308,228603.9829,900027.5733,M,100
IH155,BRIGHTON HOUSE REHAB & NURSING,170 COREY ROAD,BOSTON,IH,2135,25.623,42.343268,71.1392793,229723.7722,899259.8929,M,100
IC66,Bristol Community College,777 Elsbree St,Fall River,IC,2769,130.41,41.71919121,71.1238275,231302.7093,829949.2443,M,100
R3275,Bristol Lounge The,200 Boylston St,Boston,R,2116,75,42.35256833,71.0681359,235580.7877,900320.1647,M,100
R505,Bristol Square Caf,1428 Main St Ste 7,Walpole,R,2081,18,42.13230932,71.2626107,219626.3794,875792.3173,M,100
R3022,British Beer Company,412 Main St,Hyannis,R,2601,58.5,41.65248816,70.2845563,301244.0565,823193.0253,M,100
R3026,British Beer Company,85 Providence Highway,East Walpole,R,2032,58.5,42.15554837,71.2038938,224471.8794,878388.6953,M,100
R3027,British Beer Company,120 Worcester Road,Framingham,R,1702,58.5,42.2986203,71.3997193,208269.0913,894242.6218,M,100
R3028,British Beer Company,149 Littleton Road,Westford,R,1886,58.5,42.56960612,71.4199256,206574.6307,924341.628,M,100
F97,Broadway Bakers,93 Mystic Ave,Medford,F,2155,,42.4116632,71.1071423,232336.8896,906868.6586,M,100
R506,Broadway Catering & Restaurant.,100 Water St,Worcester,R,1604,18,42.2563438,71.7960959,175567.8378,889584.3122,M,100
R507,Brockton Baseball Concession,1 MAIN ST,BROCKTON,R,2301,18,42.0855298,71.0198606,239725.0622,870680.9379,M,100
R1007,Brockton Caf,426 Main St,Brockton,R,2301,22.5,42.076736,71.0195499,239756.2733,869704.3606,M,100
W56,Brockton Spice Company,53 Spark St Ste 501,Brockton,W,2302,,42.10417251,71.0189881,239785.569,872751.9828,M,66
R1344,Brook Bubbling Restaurant,1652 High St,Westwood,R,2090,24,42.20169872,71.2494912,220688.4099,883502.6483,M,100
IH609,BROOK HAVEN ASSISTED CARE INC,19 MAIN STREET BOX 556,WEST BROOKFIELD,IH,1585,7.227,42.2351664,72.1410694,147085.2827,887388.4936,T,82
IH156,BROOKHAVEN AT LEXINGTON,1010 WALTHAM STREET,LEXINGTON,IH,2421,16.0965,42.41545346,71.2319092,222065.8,907249.8823,M,100
IH610,BROOKHOUSE HOME FOR AGED,180 DERBY STREET,SALEM,IH,1970,11.826,42.5213313,70.887261,250347.9861,919156.9232,M,100
IH157,BROOKLINE HEALTH CARE CENTER,99 PARK STREET,BROOKLINE,IH,2446,39.42,42.33986,71.12414,230972.9298,898886.7349,M,100
IS2,Brooks School,ll60 Great Pond Road,North Andover,IS,1845,23.95575,42.68472402,71.1111926,231865.2417,937198.9985,M,100
R1552,Brotherhood The,23 Broad St,Nantucket,R,2554,30,41.28516977,70.0995671,317321.8031,782637.4098,M,100
R398,Brothers Deli Restaurant,404 Main St,Wakefield,R,1880,16.5,42.5030601,71.0701027,235334.4972,917035.5428,M,100
R50,Brothers Partners,755 Main St Ste D,Haverhill,R,1830,15,42.79709557,71.0880943,233697.9952,949690.9475,M,100
R1008,Brothers Restaurant & Bakery,77 Revere St,Winthrop,R,2152,22.5,42.38281585,70.9797565,242841.6944,903720.544,M,100
G90,"Brothers Super Market II, Inc.",776 Dudley St,Dorchester,G,2125,22.5,42.31732428,71.0657607,235796.4065,896406.4347,M,100
R3048,Brown Sugar Cafe,131 N Central Ave,Quincy,R,2170,60,42.26580914,71.0278299,238954.8681,890701.0843,M,100
R3586,Br's Restaurant,279 Plymouth St,Halifax,R,2338,97.5,41.99653247,70.8427866,254451.4604,860893.922,M,100
508,Bruegger's Bagels,91 Summer Street,Boston,R,2110,18,42.35393759,71.058432,236379.487,900476.3478,M,100
F98,Bruegger's Bagels,10 Roessler Rd,Woburn,F,1801,,42.51010537,71.1435913,229291.0291,917790.2889,M,100
R399,Bruegger's Bagels,170 Great Rd,Bedford,R,1730,16.5,42.48989962,71.2742056,218562.6204,915509.1956,M,100
R400,Bruegger's Bagels,10 Roessler Rd,Woburn,R,1801,16.5,42.51010537,71.1435913,229291.0291,917790.2889,M,100
R807,Bruegger's Bagels,211 Congress Street St #2,Boston,R,2110,18,42.35475353,71.0546906,236687.2555,900568.5819,M,100
R808,Bruegger's Bagels,644 Beacon Street,Boston,R,2215,18,42.34917945,71.0955425,233324.5933,899932.6736,M,100
R809,Bruegger's Bagels,7 School Street,Boston,R,2108,18,42.31262231,71.0964327,233270.4576,895871.7487,T,100
G91,Brunis Farm Country Store,36 Essex Rd,Ipswich,G,1938,21,42.66517529,70.8349894,254518.4148,935167.3043,M,100
R1009,Bruno's Pizza,1810 Wilbraham Rd,Springfield,R,1119,22.5,42.11583928,72.4999406,117309.3187,874420.3529,M,100
F99,Brutole Brick Oven Brewery,65 Newbury St,Danvers,F,1923,,42.5618,70.97688,242956.6372,923603.145,M,100
R1553,Brutole Brick Oven Brewery,65 Newbury St,Danvers,R,1923,30,42.5618,70.97688,242956.6372,923603.145,M,100
R3587,Bubala's By The Bay,221 Commercial St,Provincetown,R,2657,97.5,42.04970916,70.1884308,308572.1399,867425.2529,M,100
W57,"Bubble Chocolate, LLC",92 Jackson St,Salem,W,1970,,41.94199483,71.2934738,217125.9338,854647.4006,T,66
F100,Buckies Biscotti & Co,780 Route 6a,Dennis,F,2638,,41.7385247,70.1917277,308829.3537,832862.1779,M,100
IH158,BUCKLEY GREENFIELD HEALTHCARE,95 LAUREL STREET,GREENFIELD,IH,1302,39.42,42.58170097,72.6170893,108299.8442,926282.5628,M,100
R509,Buena Vista Restaurant,526 Main St,Brockton,R,2301,18,42.0746641,71.0191733,239788.7296,869474.4116,M,100
R886,Bueno Y Sano,1 Boltwood Walk,Amherst,R,1002,21,42.37586423,72.5183024,116135.7511,903318.3352,M,100
R3016,Buffalo Wild Wings,150 Whalon St,Fitchburg,R,1420,57,42.55356145,71.7842443,176655.7794,922595.1573,M,100
R51,Buffets,756 Boston Rd,Billerica,R,1821,15,42.53512772,71.2379332,221529.1419,920541.6802,M,100
